[
  {
    "phone_number": "(915) 577-6011",
    "longitude": "-106.49985294199968",
    "address": "2001 N. Oregon St.",
    "emergency_services": "Yes",
    "city": "El Paso",
    "name": "Providence Memorial Hospital",
    "url": "providence-memorial-hospital",
    "zipcode": "79902",
    "provider_number": "450002",
    "hospital ownership": "Proprietary",
    "state": "TX",
    "latitude": "31.771691253000483",
    "_id": 1,
    "type": "Acute Care"
  },
  {
    "phone_number": "(409) 883-9361",
    "longitude": "-93.76764915199965",
    "address": "608 Strickland Drive",
    "emergency_services": "Yes",
    "city": "Orange",
    "name": "Memorial Hermann Baptist Orange Hospital",
    "url": "memorial-hermann-baptist-orange-hospital",
    "zipcode": "77630",
    "provider_number": "450005",
    "hospital ownership": "Nonprofit - Church",
    "state": "TX",
    "latitude": "30.09942102700046",
    "_id": 2,
    "type": "Acute Care"
  },
  {
    "phone_number": "(830) 896-4200",
    "longitude": "-99.15177382699966",
    "address": "551 Hill Country Drive",
    "emergency_services": "Yes",
    "city": "Kerrville",
    "name": "Peterson Regional Medical Center",
    "url": "peterson-regional-medical-center",
    "zipcode": "78028",
    "provider_number": "450007",
    "hospital ownership": "Nonprofit - Church",
    "state": "TX",
    "latitude": "30.044887701000448",
    "_id": 3,
    "type": "Acute Care"
  },
  {
    "phone_number": "(940) 764-3055",
    "longitude": "-98.50044645099968",
    "address": "1600 11th St.",
    "emergency_services": "Yes",
    "city": "Wichita Falls",
    "name": "United Regional Health Care System",
    "url": "united-regional-health-care-system",
    "zipcode": "76301",
    "provider_number": "450010",
    "hospital ownership": "Nonprofit - Church",
    "state": "TX",
    "latitude": "33.90291267200047",
    "_id": 4,
    "type": "Acute Care"
  },
  {
    "phone_number": "(979) 776-3912",
    "longitude": "-96.34736305399969",
    "address": "2801 Franciscan Drive",
    "emergency_services": "Yes",
    "city": "Bryan",
    "name": "St Joseph Regional Health Center",
    "url": "st-joseph-regional-health-center",
    "zipcode": "77802",
    "provider_number": "450011",
    "hospital ownership": "Nonprofit - Church",
    "state": "TX",
    "latitude": "30.655558166000446",
    "_id": 5,
    "type": "Acute Care"
  },
  {
    "phone_number": "(214) 590-8000",
    "longitude": "-96.83703823599967",
    "address": "5201 Harry Hines Blvd.",
    "emergency_services": "Yes",
    "city": "Dallas",
    "name": "Parkland Health And Hospital System",
    "url": "parkland-health-and-hospital-system",
    "zipcode": "75235",
    "provider_number": "450015",
    "hospital ownership": "Government - Hospital District or Authority",
    "state": "TX",
    "latitude": "32.81152823000048",
    "_id": 6,
    "type": "Acute Care"
  },
  {
    "phone_number": "(409) 772-1011",
    "longitude": "-94.77554777299969",
    "address": "301 University Blvd.",
    "emergency_services": "Yes",
    "city": "Galveston",
    "name": "University Of Texas Medical Branch Gal",
    "url": "university-of-texas-medical-branch-gal",
    "zipcode": "77555",
    "provider_number": "450018",
    "hospital ownership": "Government - State",
    "state": "TX",
    "latitude": "29.311109555000485",
    "_id": 7,
    "type": "Acute Care"
  },
  {
    "phone_number": "(214) 820-0111",
    "longitude": "-96.78053864299966",
    "address": "3500 Gaston Ave.",
    "emergency_services": "Yes",
    "city": "Dallas",
    "name": "Baylor University Medical Center",
    "url": "baylor-university-medical-center",
    "zipcode": "75246",
    "provider_number": "450021",
    "hospital ownership": "Nonprofit - Church",
    "state": "TX",
    "latitude": "32.79078733400047",
    "_id": 8,
    "type": "Acute Care"
  },
  {
    "phone_number": "(361) 572-5113",
    "longitude": "-96.97675118699965",
    "address": "2701 Hospital Drive",
    "emergency_services": "Yes",
    "city": "Victoria",
    "name": "Citizens Medical Center",
    "url": "citizens-medical-center",
    "zipcode": "77901",
    "provider_number": "450023",
    "hospital ownership": "Nonprofit - Other",
    "state": "TX",
    "latitude": "28.812806397000486",
    "_id": 9,
    "type": "Acute Care"
  },
  {
    "phone_number": "(915) 521-7602",
    "longitude": "-106.43452111899967",
    "address": "4815 Alameda Ave.",
    "emergency_services": "Yes",
    "city": "El Paso",
    "name": "University Medical Center Of El Paso",
    "url": "university-medical-center-of-el-paso",
    "zipcode": "79905",
    "provider_number": "450024",
    "hospital ownership": "Government - Hospital District or Authority",
    "state": "TX",
    "latitude": "31.770719968000435",
    "_id": 10,
    "type": "Acute Care"
  },
  {
    "phone_number": "(956) 544-1400",
    "longitude": "-97.51184619599968",
    "address": "1040 W Jefferson St.",
    "emergency_services": "Yes",
    "city": "Brownsville",
    "name": "Vhs Brownsville Hospital Company, Llc",
    "url": "vhs-brownsville-hospital-company-llc",
    "zipcode": "78520",
    "provider_number": "450028",
    "hospital ownership": "Proprietary",
    "state": "TX",
    "latitude": "25.91785218500047",
    "_id": 11,
    "type": "Acute Care"
  },
  {
    "phone_number": "(956) 796-5000",
    "longitude": "-99.46895641199967",
    "address": "1700 E. Saunders",
    "emergency_services": "Yes",
    "city": "Laredo",
    "name": "Laredo Medical Center",
    "url": "laredo-medical-center",
    "zipcode": "78044",
    "provider_number": "450029",
    "hospital ownership": "Nonprofit - Church",
    "state": "TX",
    "latitude": "27.53062335800047",
    "_id": 12,
    "type": "Acute Care"
  },
  {
    "phone_number": "(903) 927-6712",
    "longitude": "-94.36783029599968",
    "address": "811 S. Washington",
    "emergency_services": "Yes",
    "city": "Marshall",
    "name": "Good Shepherd Medical Center Marshall",
    "url": "good-shepherd-medical-center-marshall",
    "zipcode": "75670",
    "provider_number": "450032",
    "hospital ownership": "Nonprofit - Church",
    "state": "TX",
    "latitude": "32.53729202000045",
    "_id": 13,
    "type": "Acute Care"
  },
  {
    "phone_number": "(956) 389-1100",
    "longitude": "-97.67118933999967",
    "address": "2101 Pease St.",
    "emergency_services": "Yes",
    "city": "Harlingen",
    "name": "Vhs Harlingen Hospital Company Llc",
    "url": "vhs-harlingen-hospital-company-llc",
    "zipcode": "78550",
    "provider_number": "450033",
    "hospital ownership": "Proprietary",
    "state": "TX",
    "latitude": "26.174020442000483",
    "_id": 14,
    "type": "Acute Care"
  },
  {
    "phone_number": "(409) 892-7171",
    "longitude": "-94.13118063699966",
    "address": "2830 Calder Ave.",
    "emergency_services": "Yes",
    "city": "Beaumont",
    "name": "Christus Hospital",
    "url": "christus-hospital",
    "zipcode": "77702",
    "provider_number": "450034",
    "hospital ownership": "Nonprofit - Church",
    "state": "TX",
    "latitude": "30.085627275000434",
    "_id": 15,
    "type": "Acute Care"
  },
  {
    "phone_number": "(713) 757-1000",
    "longitude": "-95.36622659999966",
    "address": "1401 St. Joseph Parkway",
    "emergency_services": "Yes",
    "city": "Houston",
    "name": "St Joseph Medical Center",
    "url": "st-joseph-medical-center",
    "zipcode": "77002",
    "provider_number": "450035",
    "hospital ownership": "Government - Federal",
    "state": "TX",
    "latitude": "29.747805361000474",
    "_id": 16,
    "type": "Acute Care"
  },
  {
    "phone_number": "(903) 315-2000",
    "longitude": "-94.73134817899967",
    "address": "700 E. Marshall Ave.",
    "emergency_services": "Yes",
    "city": "Longview",
    "name": "Good Shepherd Medical Center",
    "url": "good-shepherd-medical-center",
    "zipcode": "75601",
    "provider_number": "450037",
    "hospital ownership": "Nonprofit - Church",
    "state": "TX",
    "latitude": "32.50147763600046",
    "_id": 17,
    "type": "Acute Care"
  },
  {
    "phone_number": "(817) 921-3431",
    "longitude": "-97.32645284799969",
    "address": "1500 S. Main St.",
    "emergency_services": "Yes",
    "city": "Fort Worth",
    "name": "Jps Health Network",
    "url": "jps-health-network",
    "zipcode": "76104",
    "provider_number": "450039",
    "hospital ownership": "Government - Hospital District or Authority",
    "state": "TX",
    "latitude": "32.72647222600045",
    "_id": 18,
    "type": "Acute Care"
  },
  {
    "phone_number": "(806) 725-6000",
    "longitude": "-101.89255068299968",
    "address": "3615 19th St.",
    "emergency_services": "Yes",
    "city": "Lubbock",
    "name": "Covenant Medical Center",
    "url": "covenant-medical-center",
    "zipcode": "79410",
    "provider_number": "450040",
    "hospital ownership": "Nonprofit - Church",
    "state": "TX",
    "latitude": "33.57787319400046",
    "_id": 19,
    "type": "Acute Care"
  },
  {
    "phone_number": "(254) 751-4000",
    "longitude": "-97.1985460899997",
    "address": "6901 Medical Parkway",
    "emergency_services": "Yes",
    "city": "Waco",
    "name": "Providence Health Center",
    "url": "providence-health-center",
    "zipcode": "76712",
    "provider_number": "450042",
    "hospital ownership": "Nonprofit - Church",
    "state": "TX",
    "latitude": "31.513228214000435",
    "_id": 20,
    "type": "Acute Care"
  },
  {
    "phone_number": "(214) 879-3758",
    "longitude": "-96.84473258599968",
    "address": "5909 Harry Hines Blvd.",
    "emergency_services": "Yes",
    "city": "Dallas",
    "name": "UT Southwestern University Hospital",
    "url": "ut-southwestern-university-hospital",
    "zipcode": "75390",
    "provider_number": "450044",
    "hospital ownership": "Government - State",
    "state": "TX",
    "latitude": "32.81775433100046",
    "_id": 21,
    "type": "Acute Care"
  },
  {
    "phone_number": "(361) 902-4103",
    "longitude": "-97.39521913999965",
    "address": "600 Elizabeth St.",
    "emergency_services": "Yes",
    "city": "Corpus Christi",
    "name": "Christus Spohn Hospital Corpus Christi",
    "url": "christus-spohn-hospital-corpus-christi",
    "zipcode": "78404",
    "provider_number": "450046",
    "hospital ownership": "Nonprofit - Church",
    "state": "TX",
    "latitude": "27.777535767000472",
    "_id": 22,
    "type": "Acute Care"
  },
  {
    "phone_number": "(214) 947-2879",
    "longitude": "-96.82305272699966",
    "address": "1441 N. Beckley Ave.",
    "emergency_services": "Yes",
    "city": "Dallas",
    "name": "Methodist Dallas Medical Center",
    "url": "methodist-dallas-medical-center",
    "zipcode": "75203",
    "provider_number": "450051",
    "hospital ownership": "Nonprofit - Other",
    "state": "TX",
    "latitude": "32.76155917500046",
    "_id": 23,
    "type": "Acute Care"
  },
  {
    "phone_number": "(254) 675-8322",
    "longitude": "-97.55040619899967",
    "address": "101 Posey Ave.",
    "emergency_services": "Yes",
    "city": "Clifton",
    "name": "Goodall Witcher Hospital",
    "url": "goodall-witcher-hospital",
    "zipcode": "76634",
    "provider_number": "450052",
    "hospital ownership": "Government - Hospital District or Authority",
    "state": "TX",
    "latitude": "31.802211300000465",
    "_id": 24,
    "type": "Acute Care"
  },
  {
    "phone_number": "(254) 724-2111",
    "longitude": "-97.36658639599966",
    "address": "2401 31st St.",
    "emergency_services": "Yes",
    "city": "Temple",
    "name": "Scott & White Memorial Hospital",
    "url": "scott-white-memorial-hospital",
    "zipcode": "76508",
    "provider_number": "450054",
    "hospital ownership": "Nonprofit - Church",
    "state": "TX",
    "latitude": "31.077060297000457",
    "_id": 25,
    "type": "Acute Care"
  },
  {
    "phone_number": "(325) 235-1701",
    "longitude": "-100.39816803999969",
    "address": "200 E. Arizona",
    "emergency_services": "Yes",
    "city": "Sweetwater",
    "name": "Rolling Plains Memorial Hospital",
    "url": "rolling-plains-memorial-hospital",
    "zipcode": "79556",
    "provider_number": "450055",
    "hospital ownership": "Government - Hospital District or Authority",
    "state": "TX",
    "latitude": "32.453868213000476",
    "_id": 26,
    "type": "Acute Care"
  },
  {
    "phone_number": "(512) 324-1000",
    "longitude": "-97.74556209299965",
    "address": "1201 W. 38th St.",
    "emergency_services": "Yes",
    "city": "Austin",
    "name": "Seton Medical Center Austin",
    "url": "seton-medical-center-austin",
    "zipcode": "78705",
    "provider_number": "450056",
    "hospital ownership": "Nonprofit - Church",
    "state": "TX",
    "latitude": "30.306274603000475",
    "_id": 27,
    "type": "Acute Care"
  },
  {
    "phone_number": "(210) 297-1020",
    "longitude": "-98.49282708899966",
    "address": "111 Dallas St.",
    "emergency_services": "Yes",
    "city": "San Antonio",
    "name": "Baptist Medical Center",
    "url": "baptist-medical-center",
    "zipcode": "78205",
    "provider_number": "450058",
    "hospital ownership": "Proprietary",
    "state": "TX",
    "latitude": "29.432884646000446",
    "_id": 28,
    "type": "Acute Care"
  },
  {
    "phone_number": "(817) 548-6100",
    "longitude": "-97.11521103399969",
    "address": "800 W. Randol Mill Road",
    "emergency_services": "Yes",
    "city": "Arlington",
    "name": "Texas Health Arlington Memorial Hospital",
    "url": "texas-health-arlington-memorial-hospital",
    "zipcode": "76012",
    "provider_number": "450064",
    "hospital ownership": "Nonprofit - Church",
    "state": "TX",
    "latitude": "32.750092906000475",
    "_id": 29,
    "type": "Acute Care"
  },
  {
    "phone_number": "(713) 704-3700",
    "longitude": "-95.39671805399968",
    "address": "6411 Fannin",
    "emergency_services": "Yes",
    "city": "Houston",
    "name": "Memorial Hermann Texas Medical Center",
    "url": "memorial-hermann-texas-medical-center",
    "zipcode": "77030",
    "provider_number": "450068",
    "hospital ownership": "Nonprofit - Church",
    "state": "TX",
    "latitude": "29.714854132000482",
    "_id": 30,
    "type": "Acute Care"
  },
  {
    "phone_number": "(979) 297-4411",
    "longitude": "-95.4521614359997",
    "address": "100 Medical Drive",
    "emergency_services": "Yes",
    "city": "Lake Jackson",
    "name": "Brazosport Regional Health System",
    "url": "brazosport-regional-health-system",
    "zipcode": "77566",
    "provider_number": "450072",
    "hospital ownership": "Nonprofit - Church",
    "state": "TX",
    "latitude": "29.03191861200048",
    "_id": 31,
    "type": "Acute Care"
  },
  {
    "phone_number": "(325) 574-7437",
    "longitude": "-100.9171367189997",
    "address": "1700 Cogdell Blvd.",
    "emergency_services": "Yes",
    "city": "Snyder",
    "name": "Cogdell Memorial Hospital",
    "url": "cogdell-memorial-hospital",
    "zipcode": "79549",
    "provider_number": "450073",
    "hospital ownership": "Government - Hospital District or Authority",
    "state": "TX",
    "latitude": "32.68847800000049",
    "_id": 32,
    "type": "Acute Care"
  },
  {
    "phone_number": "(713) 792-2121",
    "longitude": "-95.39693895799968",
    "address": "1515 Holcombe Blvd.",
    "emergency_services": "Yes",
    "city": "Houston",
    "name": "University Of Texas M D Anderson Cancer Center,The",
    "url": "university-of-texas-m-d-anderson-cancer-center-the",
    "zipcode": "77030",
    "provider_number": "450076",
    "hospital ownership": "Government - State",
    "state": "TX",
    "latitude": "29.706352887000435",
    "_id": 33,
    "type": "Acute Care"
  },
  {
    "phone_number": "(325) 823-3231",
    "longitude": "-99.89548544199965",
    "address": "101 Ave. J",
    "emergency_services": "Yes",
    "city": "Anson",
    "name": "Anson General Hospital",
    "url": "anson-general-hospital",
    "zipcode": "79501",
    "provider_number": "450078",
    "hospital ownership": "Nonprofit - Other",
    "state": "TX",
    "latitude": "32.76742223100047",
    "_id": 34,
    "type": "Acute Care"
  },
  {
    "phone_number": "(972) 579-8100",
    "longitude": "-96.95925271999965",
    "address": "1901 N. Mac Arthur Blvd.",
    "emergency_services": "Yes",
    "city": "Irving",
    "name": "Baylor Medical Center At Irving",
    "url": "baylor-medical-center-at-irving",
    "zipcode": "75061",
    "provider_number": "450079",
    "hospital ownership": "Proprietary",
    "state": "TX",
    "latitude": "32.834260602000484",
    "_id": 35,
    "type": "Acute Care"
  },
  {
    "phone_number": "(903) 577-6000",
    "longitude": "-94.97047391199965",
    "address": "2001 N. Jefferson",
    "emergency_services": "Yes",
    "city": "Mount Pleasant",
    "name": "Titus Regional Medical Center",
    "url": "titus-regional-medical-center",
    "zipcode": "75455",
    "provider_number": "450080",
    "hospital ownership": "Government - Hospital District or Authority",
    "state": "TX",
    "latitude": "33.17582892200045",
    "_id": 36,
    "type": "Acute Care"
  },
  {
    "phone_number": "(361) 354-2000",
    "longitude": "-97.7326875609997",
    "address": "1500 E. Houston Highway",
    "emergency_services": "Yes",
    "city": "Beeville",
    "name": "Christus Spohn Hospital Beeville",
    "url": "christus-spohn-hospital-beeville",
    "zipcode": "78102",
    "provider_number": "450082",
    "hospital ownership": "Nonprofit - Church",
    "state": "TX",
    "latitude": "28.40794559900047",
    "_id": 37,
    "type": "Acute Care"
  },
  {
    "phone_number": "(903) 597-0351",
    "longitude": "-95.29189685099965",
    "address": "1000 S. Beckham St.",
    "emergency_services": "Yes",
    "city": "Tyler",
    "name": "East Texas Medical Center",
    "url": "east-texas-medical-center",
    "zipcode": "75701",
    "provider_number": "450083",
    "hospital ownership": "Government - Local",
    "state": "TX",
    "latitude": "32.33848393100044",
    "_id": 38,
    "type": "Acute Care"
  },
  {
    "phone_number": "(940) 549-3400",
    "longitude": "-98.58576011499969",
    "address": "1301 Montgomery Road",
    "emergency_services": "Yes",
    "city": "Graham",
    "name": "Graham Regional Medical Center",
    "url": "graham-regional-medical-center",
    "zipcode": "76450",
    "provider_number": "450085",
    "hospital ownership": "Government - Local",
    "state": "TX",
    "latitude": "33.08987958600045",
    "_id": 39,
    "type": "Acute Care"
  },
  {
    "phone_number": "(817) 255-1000",
    "longitude": "-97.21224378799968",
    "address": "4401 Booth Calloway Road",
    "emergency_services": "Yes",
    "city": "North Richland Hills",
    "name": "North Hills Hospital",
    "url": "north-hills-hospital",
    "zipcode": "76180",
    "provider_number": "450087",
    "hospital ownership": "Proprietary",
    "state": "TX",
    "latitude": "32.82889048900046",
    "_id": 40,
    "type": "Acute Care"
  },
  {
    "phone_number": "(940) 612-8600",
    "longitude": "-97.16250571099965",
    "address": "1900 Hospital Blvd.",
    "emergency_services": "Yes",
    "city": "Gainesville",
    "name": "North Texas Medical Center",
    "url": "north-texas-medical-center",
    "zipcode": "76240",
    "provider_number": "450090",
    "hospital ownership": "Government - Hospital District or Authority",
    "state": "TX",
    "latitude": "33.64615093200047",
    "_id": 41,
    "type": "Acute Care"
  },
  {
    "phone_number": "(830) 773-5321",
    "longitude": "-100.45392437099969",
    "address": "3333 N. Foster Maldonado Blvd.",
    "emergency_services": "Yes",
    "city": "Eagle Pass",
    "name": "Fort Duncan Medical Center",
    "url": "fort-duncan-medical-center",
    "zipcode": "78852",
    "provider_number": "450092",
    "hospital ownership": "Proprietary",
    "state": "TX",
    "latitude": "28.70944556200044",
    "_id": 42,
    "type": "Acute Care"
  },
  {
    "phone_number": "(713) 359-1000",
    "longitude": "-95.18371238199967",
    "address": "4000 Spencer Highway",
    "emergency_services": "Yes",
    "city": "Pasadena",
    "name": "Bayshore Medical Center",
    "url": "bayshore-medical-center",
    "zipcode": "77504",
    "provider_number": "450097",
    "hospital ownership": "Proprietary",
    "state": "TX",
    "latitude": "29.66515698900048",
    "_id": 43,
    "type": "Acute Care"
  },
  {
    "phone_number": "(806) 665-3721",
    "longitude": "-100.96348470099969",
    "address": "1 Medical Plaza",
    "emergency_services": "Yes",
    "city": "Pampa",
    "name": "Pampa Regional Medical Center",
    "url": "pampa-regional-medical-center",
    "zipcode": "79065",
    "provider_number": "450099",
    "hospital ownership": "Proprietary",
    "state": "TX",
    "latitude": "35.57211432700046",
    "_id": 44,
    "type": "Acute Care"
  },
  {
    "phone_number": "(254) 202-2000",
    "longitude": "-97.15696089499966",
    "address": "100 Hillcrest Medical Blvd.",
    "emergency_services": "Yes",
    "city": "Waco",
    "name": "Hillcrest Baptist Medical Center",
    "url": "hillcrest-baptist-medical-center",
    "zipcode": "76712",
    "provider_number": "450101",
    "hospital ownership": "Nonprofit - Church",
    "state": "TX",
    "latitude": "31.489150708000466",
    "_id": 45,
    "type": "Acute Care"
  },
  {
    "phone_number": "(903) 593-8441",
    "longitude": "-95.29195701399965",
    "address": "800 E. Dawson",
    "emergency_services": "Yes",
    "city": "Tyler",
    "name": "Mother Frances Hospital",
    "url": "mother-frances-hospital",
    "zipcode": "75701",
    "provider_number": "450102",
    "hospital ownership": "Nonprofit - Church",
    "state": "TX",
    "latitude": "32.34216567100049",
    "_id": 46,
    "type": "Acute Care"
  },
  {
    "phone_number": "(830) 379-2411",
    "longitude": "-97.9477502799997",
    "address": "1215 E. Court St.",
    "emergency_services": "Yes",
    "city": "Seguin",
    "name": "Guadalupe Regional Medical Center",
    "url": "guadalupe-regional-medical-center",
    "zipcode": "78155",
    "provider_number": "450104",
    "hospital ownership": "Government - Local",
    "state": "TX",
    "latitude": "29.569053085000462",
    "_id": 47,
    "type": "Acute Care"
  },
  {
    "phone_number": "(915) 521-1200",
    "longitude": "-106.49841269899969",
    "address": "1801 N. Oregon St.",
    "emergency_services": "Yes",
    "city": "El Paso",
    "name": "Las Palmas Medical Center",
    "url": "las-palmas-medical-center",
    "zipcode": "79902",
    "provider_number": "450107",
    "hospital ownership": "Proprietary",
    "state": "TX",
    "latitude": "31.77003071100046",
    "_id": 48,
    "type": "Acute Care"
  },
  {
    "phone_number": "(830) 393-1300",
    "longitude": "-98.17340903599967",
    "address": "499 10th St.",
    "emergency_services": "Yes",
    "city": "Floresville",
    "name": "Connally Memorial Medical Center",
    "url": "connally-memorial-medical-center",
    "zipcode": "78114",
    "provider_number": "450108",
    "hospital ownership": "Government - Hospital District or Authority",
    "state": "TX",
    "latitude": "29.15957012500047",
    "_id": 49,
    "type": "Acute Care"
  },
  {
    "phone_number": "(956) 632-4000",
    "longitude": "-98.18136440599966",
    "address": "1102 W. Trenton Road",
    "emergency_services": "Yes",
    "city": "Edinburg",
    "name": "South Texas Health System",
    "url": "south-texas-health-system",
    "zipcode": "78539",
    "provider_number": "450119",
    "hospital ownership": "Proprietary",
    "state": "TX",
    "latitude": "26.26306279500045",
    "_id": 50,
    "type": "Acute Care"
  },
  {
    "phone_number": "(512) 324-7000",
    "longitude": "-97.73335793599966",
    "address": "601 E. 15th St.",
    "emergency_services": "Yes",
    "city": "Austin",
    "name": "University Medical Center At Brackenridge",
    "url": "university-medical-center-at-brackenridge",
    "zipcode": "78701",
    "provider_number": "450124",
    "hospital ownership": "Nonprofit - Church",
    "state": "TX",
    "latitude": "30.275163717000453",
    "_id": 51,
    "type": "Acute Care"
  },
  {
    "phone_number": "(956) 968-8567",
    "longitude": "-97.97634874799968",
    "address": "1401 E. Eighth St.",
    "emergency_services": "Yes",
    "city": "Weslaco",
    "name": "Knapp Medical Center",
    "url": "knapp-medical-center",
    "zipcode": "78596",
    "provider_number": "450128",
    "hospital ownership": "Nonprofit - Church",
    "state": "TX",
    "latitude": "26.15193250000044",
    "_id": 52,
    "type": "Acute Care"
  },
  {
    "phone_number": "(210) 271-2188",
    "longitude": "-98.48965736099967",
    "address": "414 Navarro, Suite 600",
    "emergency_services": "Yes",
    "city": "San Antonio",
    "name": "Nix Health Care System",
    "url": "nix-health-care-system",
    "zipcode": "78205",
    "provider_number": "450130",
    "hospital ownership": "Proprietary",
    "state": "TX",
    "latitude": "29.425128266000456",
    "_id": 53,
    "type": "Acute Care"
  },
  {
    "phone_number": "(432) 640-4000",
    "longitude": "-102.36411742699966",
    "address": "500 W. 4th St.",
    "emergency_services": "No",
    "city": "Odessa",
    "name": "Medical Center Hospital",
    "url": "medical-center-hospital",
    "zipcode": "79761",
    "provider_number": "450132",
    "hospital ownership": "Government - Hospital District or Authority",
    "state": "TX",
    "latitude": "31.84994519300045",
    "_id": 54,
    "type": "Acute Care"
  },
  {
    "phone_number": "(432) 685-1111",
    "longitude": "-102.08318980099966",
    "address": "400 Rosalind Redfern Grover Parkway",
    "emergency_services": "Yes",
    "city": "Midland",
    "name": "Midland Memorial Hospital",
    "url": "midland-memorial-hospital",
    "zipcode": "79701",
    "provider_number": "450133",
    "hospital ownership": "Government - Hospital District or Authority",
    "state": "TX",
    "latitude": "31.996541671000443",
    "_id": 55,
    "type": "Acute Care"
  },
  {
    "phone_number": "(817) 250-2100",
    "longitude": "-97.3393107979997",
    "address": "1301 Pennsylvania Ave.",
    "emergency_services": "Yes",
    "city": "Fort Worth",
    "name": "Texas Health Harris Methodist Fort Worth",
    "url": "texas-health-harris-methodist-fort-worth",
    "zipcode": "76104",
    "provider_number": "450135",
    "hospital ownership": "Nonprofit - Church",
    "state": "TX",
    "latitude": "32.73843357800047",
    "_id": 56,
    "type": "Acute Care"
  },
  {
    "phone_number": "(817) 926-2544",
    "longitude": "-97.3437831279997",
    "address": "1400 Eighth Ave.",
    "emergency_services": "Yes",
    "city": "Fort Worth",
    "name": "Baylor All Saints Medical Center At Fw",
    "url": "baylor-all-saints-medical-center-at-fw",
    "zipcode": "76104",
    "provider_number": "450137",
    "hospital ownership": "Nonprofit - Church",
    "state": "TX",
    "latitude": "32.73043999800046",
    "_id": 57,
    "type": "Acute Care"
  },
  {
    "phone_number": "(512) 237-3214",
    "longitude": "-97.07995891699966",
    "address": "800 E. Highway 71",
    "emergency_services": "Yes",
    "city": "Smithville",
    "name": "Seton Smithville Regional Hospital",
    "url": "seton-smithville-regional-hospital",
    "zipcode": "78957",
    "provider_number": "450143",
    "hospital ownership": "Nonprofit - Church",
    "state": "TX",
    "latitude": "29.948611602000483",
    "_id": 58,
    "type": "Acute Care"
  },
  {
    "phone_number": "(432) 523-2200",
    "longitude": "-102.5461718359997",
    "address": "720 Hospital Drive",
    "emergency_services": "Yes",
    "city": "Andrews",
    "name": "Permian Regional Medical Center Andrews County Ho",
    "url": "permian-regional-medical-center-andrews-county-ho",
    "zipcode": "79714",
    "provider_number": "450144",
    "hospital ownership": "Government - Hospital District or Authority",
    "state": "TX",
    "latitude": "32.33708692300047",
    "_id": 59,
    "type": "Acute Care"
  },
  {
    "phone_number": "(361) 575-7441",
    "longitude": "-96.99848391899968",
    "address": "506 E. San Antonio St.",
    "emergency_services": "Yes",
    "city": "Victoria",
    "name": "Detar Hospital Navarro",
    "url": "detar-hospital-navarro",
    "zipcode": "77902",
    "provider_number": "450147",
    "hospital ownership": "Proprietary",
    "state": "TX",
    "latitude": "28.807605655000486",
    "_id": 60,
    "type": "Acute Care"
  },
  {
    "phone_number": "(817) 641-2551",
    "longitude": "-97.43765403399965",
    "address": "201 Walls Drive",
    "emergency_services": "Yes",
    "city": "Cleburne",
    "name": "Texas Health Harris Methodist Hospital Cleburne",
    "url": "texas-health-harris-methodist-hospital-cleburne",
    "zipcode": "76033",
    "provider_number": "450148",
    "hospital ownership": "Nonprofit - Church",
    "state": "TX",
    "latitude": "32.33106601500049",
    "_id": 61,
    "type": "Acute Care"
  },
  {
    "phone_number": "(254) 526-7523",
    "longitude": "-97.79993004499966",
    "address": "2201 S. Clear Creek Road",
    "emergency_services": "Yes",
    "city": "Killeen",
    "name": "Metroplex Hospital",
    "url": "metroplex-hospital",
    "zipcode": "76542",
    "provider_number": "450152",
    "hospital ownership": "Nonprofit - Church",
    "state": "TX",
    "latitude": "31.112461921000488",
    "_id": 62,
    "type": "Acute Care"
  },
  {
    "phone_number": "(830) 775-8566",
    "longitude": "-100.89362680399967",
    "address": "801 Bedell Ave.",
    "emergency_services": "Yes",
    "city": "Del Rio",
    "name": "Val Verde Regional Medical Center",
    "url": "val-verde-regional-medical-center",
    "zipcode": "78840",
    "provider_number": "450154",
    "hospital ownership": "Government - Hospital District or Authority",
    "state": "TX",
    "latitude": "29.37499328400048",
    "_id": 63,
    "type": "Acute Care"
  },
  {
    "phone_number": "(806) 364-2141",
    "longitude": "-102.39119302899968",
    "address": "801 E. Third",
    "emergency_services": "Yes",
    "city": "Hereford",
    "name": "Hereford Regional Medical Center",
    "url": "hereford-regional-medical-center",
    "zipcode": "79045",
    "provider_number": "450155",
    "hospital ownership": "Government - Hospital District or Authority",
    "state": "TX",
    "latitude": "34.82073573500048",
    "_id": 64,
    "type": "Acute Care"
  },
  {
    "phone_number": "(806) 788-4100",
    "longitude": "-101.87010019999968",
    "address": "2412 50th St.",
    "emergency_services": "Yes",
    "city": "Lubbock",
    "name": "Grace Medical Center",
    "url": "grace-medical-center",
    "zipcode": "79412",
    "provider_number": "450162",
    "hospital ownership": "Proprietary",
    "state": "TX",
    "latitude": "33.548807783000484",
    "_id": 65,
    "type": "Acute Care"
  },
  {
    "phone_number": "(361) 595-1661",
    "longitude": "-97.85040010499966",
    "address": "1311 E. General Cavazos Blvd.",
    "emergency_services": "Yes",
    "city": "Kingsville",
    "name": "Christus Spohn Hospital Kleberg",
    "url": "christus-spohn-hospital-kleberg",
    "zipcode": "78363",
    "provider_number": "450163",
    "hospital ownership": "Nonprofit - Church",
    "state": "TX",
    "latitude": "27.491443560000448",
    "_id": 66,
    "type": "Acute Care"
  },
  {
    "phone_number": "(830) 769-3515",
    "longitude": "-98.5260969519997",
    "address": "1905 Highway 97 East",
    "emergency_services": "Yes",
    "city": "Jourdanton",
    "name": "South Texas Regional Medical Center",
    "url": "south-texas-regional-medical-center",
    "zipcode": "78026",
    "provider_number": "450165",
    "hospital ownership": "Proprietary",
    "state": "TX",
    "latitude": "28.931356646000438",
    "_id": 67,
    "type": "Acute Care"
  },
  {
    "phone_number": "(956) 323-9000",
    "longitude": "-98.31274029799965",
    "address": "900 S. Bryan Road",
    "emergency_services": "Yes",
    "city": "Mission",
    "name": "Mission Regional Medical Center",
    "url": "mission-regional-medical-center",
    "zipcode": "78572",
    "provider_number": "450176",
    "hospital ownership": "Nonprofit - Church",
    "state": "TX",
    "latitude": "26.196397118000448",
    "_id": 68,
    "type": "Acute Care"
  },
  {
    "phone_number": "(830) 278-6251",
    "longitude": "-99.76852128399969",
    "address": "1025 Garner Field Road",
    "emergency_services": "Yes",
    "city": "Uvalde",
    "name": "Uvalde Memorial Hospital",
    "url": "uvalde-memorial-hospital",
    "zipcode": "78801",
    "provider_number": "450177",
    "hospital ownership": "Government - Hospital District or Authority",
    "state": "TX",
    "latitude": "29.21514294500048",
    "_id": 69,
    "type": "Acute Care"
  },
  {
    "phone_number": "(432) 336-4201",
    "longitude": "-102.26636752199965",
    "address": "387 W. Interstate 10",
    "emergency_services": "Yes",
    "city": "Fort Stockton",
    "name": "Pecos County Memorial Hospital",
    "url": "pecos-county-memorial-hospital",
    "zipcode": "79735",
    "provider_number": "450178",
    "hospital ownership": "Government - Local",
    "state": "TX",
    "latitude": "30.892351841000448",
    "_id": 70,
    "type": "Acute Care"
  },
  {
    "phone_number": "(713) 448-6796",
    "longitude": "-95.43058859999968",
    "address": "1635 North Loop West",
    "emergency_services": "Yes",
    "city": "Houston",
    "name": "Memorial Hermann Hospital System",
    "url": "memorial-hermann-hospital-system",
    "zipcode": "77008",
    "provider_number": "450184",
    "hospital ownership": "Nonprofit - Church",
    "state": "TX",
    "latitude": "29.81224316200047",
    "_id": 71,
    "type": "Acute Care"
  },
  {
    "phone_number": "(979) 836-6173",
    "longitude": "-96.39907674399967",
    "address": "700 Medical Parkway",
    "emergency_services": "Yes",
    "city": "Brenham",
    "name": "Scott & White Hospital Brenham",
    "url": "scott-white-hospital-brenham",
    "zipcode": "77833",
    "provider_number": "450187",
    "hospital ownership": "Nonprofit - Church",
    "state": "TX",
    "latitude": "30.145335848000457",
    "_id": 72,
    "type": "Acute Care"
  },
  {
    "phone_number": "(903) 427-3851",
    "longitude": "-95.04896668199967",
    "address": "3000 W. Main St.",
    "emergency_services": "Yes",
    "city": "Clarksville",
    "name": "Etmc Clarksville",
    "url": "etmc-clarksville",
    "zipcode": "75426",
    "provider_number": "450188",
    "hospital ownership": "Nonprofit - Other",
    "state": "TX",
    "latitude": "33.61115273200045",
    "_id": 73,
    "type": "Acute Care"
  },
  {
    "phone_number": "(254) 580-8500",
    "longitude": "-97.0994275919997",
    "address": "101 Circle Drive",
    "emergency_services": "Yes",
    "city": "Hillsboro",
    "name": "Hill Regional Hospital",
    "url": "hill-regional-hospital",
    "zipcode": "76645",
    "provider_number": "450192",
    "hospital ownership": "Nonprofit - Church",
    "state": "TX",
    "latitude": "32.012306425000475",
    "_id": 74,
    "type": "Acute Care"
  },
  {
    "phone_number": "(832) 355-1000",
    "longitude": "-95.39916400699968",
    "address": "6720 Bertner",
    "emergency_services": "Yes",
    "city": "Houston",
    "name": "St Lukes Episcopal Hospital",
    "url": "st-lukes-episcopal-hospital",
    "zipcode": "77030",
    "provider_number": "450193",
    "hospital ownership": "Nonprofit - Church",
    "state": "TX",
    "latitude": "29.70839968000047",
    "_id": 75,
    "type": "Acute Care"
  },
  {
    "phone_number": "(903) 541-5000",
    "longitude": "-95.27033798699966",
    "address": "501 S. Ragsdale",
    "emergency_services": "Yes",
    "city": "Jacksonville",
    "name": "East Texas Medical Center Jacksonville",
    "url": "east-texas-medical-center-jacksonville",
    "zipcode": "75766",
    "provider_number": "450194",
    "hospital ownership": "Nonprofit - Church",
    "state": "TX",
    "latitude": "31.960945688000436",
    "_id": 76,
    "type": "Acute Care"
  },
  {
    "phone_number": "(903) 785-4521",
    "longitude": "-95.54808321199965",
    "address": "820 Clarksville St.",
    "emergency_services": "Yes",
    "city": "Paris",
    "name": "Paris Regional Medical Center",
    "url": "paris-regional-medical-center",
    "zipcode": "75460",
    "provider_number": "450196",
    "hospital ownership": "Proprietary",
    "state": "TX",
    "latitude": "33.66044312200046",
    "_id": 77,
    "type": "Acute Care"
  },
  {
    "phone_number": "(903) 798-8000",
    "longitude": "-94.04667523399968",
    "address": "1000 Pine St.",
    "emergency_services": "Yes",
    "city": "Texarkana",
    "name": "Wadley Regional Medical Center",
    "url": "wadley-regional-medical-center",
    "zipcode": "75501",
    "provider_number": "450200",
    "hospital ownership": "Proprietary",
    "state": "TX",
    "latitude": "33.42760624200048",
    "_id": 78,
    "type": "Acute Care"
  },
  {
    "phone_number": "(817) 599-1190",
    "longitude": "-97.78684751699967",
    "address": "713 E. Anderson St.",
    "emergency_services": "Yes",
    "city": "Weatherford",
    "name": "Weatherford Regional Medical Center",
    "url": "weatherford-regional-medical-center",
    "zipcode": "76086",
    "provider_number": "450203",
    "hospital ownership": "Proprietary",
    "state": "TX",
    "latitude": "32.74753921100046",
    "_id": 79,
    "type": "Acute Care"
  },
  {
    "phone_number": "(806) 354-1110",
    "longitude": "-101.92037962399968",
    "address": "1501 Coulter Road",
    "emergency_services": "Yes",
    "city": "Amarillo",
    "name": "Northwest Texas Hospital",
    "url": "northwest-texas-hospital",
    "zipcode": "79106",
    "provider_number": "450209",
    "hospital ownership": "Proprietary",
    "state": "TX",
    "latitude": "35.185893878000456",
    "_id": 80,
    "type": "Acute Care"
  },
  {
    "phone_number": "(936) 933-3841",
    "longitude": "-94.33337716199969",
    "address": "409 W. Cottage",
    "emergency_services": "Yes",
    "city": "Carthage",
    "name": "Etmc Carthage",
    "url": "etmc-carthage",
    "zipcode": "75633",
    "provider_number": "450210",
    "hospital ownership": "Nonprofit - Church",
    "state": "TX",
    "latitude": "32.143793908000475",
    "_id": 81,
    "type": "Acute Care"
  },
  {
    "phone_number": "(936) 634-8111",
    "longitude": "-94.68526612199969",
    "address": "1201 W. Frank St.",
    "emergency_services": "Yes",
    "city": "Lufkin",
    "name": "Memorial Medical Center Of East Texas",
    "url": "memorial-medical-center-of-east-texas",
    "zipcode": "75901",
    "provider_number": "450211",
    "hospital ownership": "Nonprofit - Church",
    "state": "TX",
    "latitude": "31.325333912000474",
    "_id": 82,
    "type": "Acute Care"
  },
  {
    "phone_number": "(210) 358-4000",
    "longitude": "-98.57945748799966",
    "address": "4502 Medical Drive",
    "emergency_services": "Yes",
    "city": "San Antonio",
    "name": "University Health System",
    "url": "university-health-system",
    "zipcode": "78229",
    "provider_number": "450213",
    "hospital ownership": "Government - Hospital District or Authority",
    "state": "TX",
    "latitude": "29.510074227000473",
    "_id": 83,
    "type": "Acute Care"
  },
  {
    "phone_number": "(979) 532-2500",
    "longitude": "-96.12076792499965",
    "address": "10141 U.S. Highway 59 North",
    "emergency_services": "Yes",
    "city": "Wharton",
    "name": "Gulf Coast Medical Center",
    "url": "gulf-coast-medical-center",
    "zipcode": "77488",
    "provider_number": "450214",
    "hospital ownership": "Proprietary",
    "state": "TX",
    "latitude": "29.325922837000462",
    "_id": 84,
    "type": "Acute Care"
  },
  {
    "phone_number": "(325) 247-5040",
    "longitude": "-98.67767109699969",
    "address": "200 W. Ollie",
    "emergency_services": "Yes",
    "city": "Llano",
    "name": "Scott & White Hospital-Llano",
    "url": "scott-white-hospital-llano",
    "zipcode": "78643",
    "provider_number": "450219",
    "hospital ownership": "Nonprofit - Church",
    "state": "TX",
    "latitude": "30.743282645000477",
    "_id": 85,
    "type": "Acute Care"
  },
  {
    "phone_number": "(806) 935-7171",
    "longitude": "-101.97030118399965",
    "address": "224 E. Second St.",
    "emergency_services": "Yes",
    "city": "Dumas",
    "name": "Moore County Hospital District",
    "url": "moore-county-hospital-district",
    "zipcode": "79029",
    "provider_number": "450221",
    "hospital ownership": "Government - Hospital District or Authority",
    "state": "TX",
    "latitude": "35.86427041300044",
    "_id": 86,
    "type": "Acute Care"
  },
  {
    "phone_number": "(936) 539-1111",
    "longitude": "-95.46626886099966",
    "address": "504 Medical Center Blvd.",
    "emergency_services": "Yes",
    "city": "Conroe",
    "name": "Conroe Regional Medical Center",
    "url": "conroe-regional-medical-center",
    "zipcode": "77304",
    "provider_number": "450222",
    "hospital ownership": "Proprietary",
    "state": "TX",
    "latitude": "30.28451513200048",
    "_id": 87,
    "type": "Acute Care"
  },
  {
    "phone_number": "(325) 670-2000",
    "longitude": "-99.73114769599965",
    "address": "1900 Pine",
    "emergency_services": "Yes",
    "city": "Abilene",
    "name": "Hendrick Medical Center",
    "url": "hendrick-medical-center",
    "zipcode": "79601",
    "provider_number": "450229",
    "hospital ownership": "Nonprofit - Church",
    "state": "TX",
    "latitude": "32.47147132900045",
    "_id": 88,
    "type": "Acute Care"
  },
  {
    "phone_number": "(806) 212-2000",
    "longitude": "-101.91922595399967",
    "address": "1600 Wallace Blvd.",
    "emergency_services": "Yes",
    "city": "Amarillo",
    "name": "Baptist St Anthony's Hospital",
    "url": "baptist-st-anthony-s-hospital",
    "zipcode": "79106",
    "provider_number": "450231",
    "hospital ownership": "Government - Federal",
    "state": "TX",
    "latitude": "35.19498783600045",
    "_id": 89,
    "type": "Acute Care"
  },
  {
    "phone_number": "(830) 672-7581",
    "longitude": "-97.4299158229997",
    "address": "1110 N. Sarah Dewitt Drive",
    "emergency_services": "Yes",
    "city": "Gonzales",
    "name": "Memorial Hospital",
    "url": "memorial-hospital",
    "zipcode": "78629",
    "provider_number": "450235",
    "hospital ownership": "Government - Hospital District or Authority",
    "state": "TX",
    "latitude": "29.516863760000433",
    "_id": 90,
    "type": "Acute Care"
  },
  {
    "phone_number": "(903) 885-7671",
    "longitude": "-95.60012823899967",
    "address": "115 Airport Road",
    "emergency_services": "Yes",
    "city": "Sulphur Springs",
    "name": "Hopkins County Memorial Hospital",
    "url": "hopkins-county-memorial-hospital",
    "zipcode": "75482",
    "provider_number": "450236",
    "hospital ownership": "Government - Hospital District or Authority",
    "state": "TX",
    "latitude": "33.15631452800045",
    "_id": 91,
    "type": "Acute Care"
  },
  {
    "phone_number": "(210) 704-2011",
    "longitude": "-98.59152898999969",
    "address": "2827 Babcock Road",
    "emergency_services": "Yes",
    "city": "San Antonio",
    "name": "Christus Santa Rosa Hospital",
    "url": "christus-santa-rosa-hospital",
    "zipcode": "78229",
    "provider_number": "450237",
    "hospital ownership": "Nonprofit - Church",
    "state": "TX",
    "latitude": "29.512315130000445",
    "_id": 92,
    "type": "Acute Care"
  },
  {
    "phone_number": "(940) 567-6633",
    "longitude": "-98.16922321399966",
    "address": "717 Magnolia St.",
    "emergency_services": "Yes",
    "city": "Jacksboro",
    "name": "Faith Community Hospital",
    "url": "faith-community-hospital",
    "zipcode": "76458",
    "provider_number": "450241",
    "hospital ownership": "Government - Hospital District or Authority",
    "state": "TX",
    "latitude": "33.22600854100045",
    "_id": 93,
    "type": "Acute Care"
  },
  {
    "phone_number": "(325) 576-3646",
    "longitude": "-100.13474049499968",
    "address": "632 Nw. Second St.",
    "emergency_services": "Yes",
    "city": "Hamlin",
    "name": "Hamlin Memorial Hospital",
    "url": "hamlin-memorial-hospital",
    "zipcode": "79520",
    "provider_number": "450243",
    "hospital ownership": "Government - Hospital District or Authority",
    "state": "TX",
    "latitude": "32.885165876000485",
    "_id": 94,
    "type": "Acute Care"
  },
  {
    "phone_number": "(979) 865-3141",
    "longitude": "-96.26087018699968",
    "address": "44 N. Cummings",
    "emergency_services": "Yes",
    "city": "Bellville",
    "name": "Bellville General Hospital",
    "url": "bellville-general-hospital",
    "zipcode": "77418",
    "provider_number": "450253",
    "hospital ownership": "Nonprofit - Church",
    "state": "TX",
    "latitude": "29.952073124000435",
    "_id": 95,
    "type": "Acute Care"
  },
  {
    "phone_number": "(254) 694-3165",
    "longitude": "-97.32016836999969",
    "address": "200 N. San Jacinto St.",
    "emergency_services": "Yes",
    "city": "Whitney",
    "name": "Lake Whitney Medical Center",
    "url": "lake-whitney-medical-center",
    "zipcode": "76692",
    "provider_number": "450270",
    "hospital ownership": "Proprietary",
    "state": "TX",
    "latitude": "31.95130222600045",
    "_id": 96,
    "type": "Acute Care"
  },
  {
    "phone_number": "(940) 627-5921",
    "longitude": "-97.59545252599969",
    "address": "609 Medical Center Drive",
    "emergency_services": "Yes",
    "city": "Decatur",
    "name": "Wise Regional Health System",
    "url": "wise-regional-health-system",
    "zipcode": "76234",
    "provider_number": "450271",
    "hospital ownership": "Government - Hospital District or Authority",
    "state": "TX",
    "latitude": "33.21848912800044",
    "_id": 97,
    "type": "Acute Care"
  },
  {
    "phone_number": "(512) 753-3690",
    "longitude": "-97.94709174799965",
    "address": "1301 Wonder World Drive",
    "emergency_services": "Yes",
    "city": "San Marcos",
    "name": "Central Texas Medical Center",
    "url": "central-texas-medical-center",
    "zipcode": "78666",
    "provider_number": "450272",
    "hospital ownership": "Nonprofit - Church",
    "state": "TX",
    "latitude": "29.85183323600046",
    "_id": 98,
    "type": "Acute Care"
  },
  {
    "phone_number": "(972) 487-5000",
    "longitude": "-96.66228097399966",
    "address": "2300 Marie Curie Drive",
    "emergency_services": "Yes",
    "city": "Garland",
    "name": "Baylor Medical Center At Garland",
    "url": "baylor-medical-center-at-garland",
    "zipcode": "75042",
    "provider_number": "450280",
    "hospital ownership": "Government - Federal",
    "state": "TX",
    "latitude": "32.91860832900045",
    "_id": 99,
    "type": "Acute Care"
  },
  {
    "phone_number": "(713) 566-6417",
    "longitude": "-95.39061342799965",
    "address": "2525 Holly Hall",
    "emergency_services": "Yes",
    "city": "Houston",
    "name": "Harris Health System",
    "url": "harris-health-system",
    "zipcode": "77054",
    "provider_number": "450289",
    "hospital ownership": "Government - Local",
    "state": "TX",
    "latitude": "29.685401131000447",
    "_id": 100,
    "type": "Acute Care"
  },
  {
    "phone_number": "(972) 932-7200",
    "longitude": "-96.27498631899965",
    "address": "850 Ed Hall",
    "emergency_services": "Yes",
    "city": "Kaufman",
    "name": "Texas Health Presbyterian Hospital Kaufman",
    "url": "texas-health-presbyterian-hospital-kaufman",
    "zipcode": "75142",
    "provider_number": "450292",
    "hospital ownership": "Nonprofit - Church",
    "state": "TX",
    "latitude": "32.58450347000047",
    "_id": 101,
    "type": "Acute Care"
  },
  {
    "phone_number": "(830) 334-3617",
    "longitude": "-99.09937893399967",
    "address": "200 S. Interstate 35",
    "emergency_services": "Yes",
    "city": "Pearsall",
    "name": "Frio Regional Hospital",
    "url": "frio-regional-hospital",
    "zipcode": "78061",
    "provider_number": "450293",
    "hospital ownership": "Nonprofit - Church",
    "state": "TX",
    "latitude": "28.89570242600047",
    "_id": 102,
    "type": "Acute Care"
  },
  {
    "phone_number": "(281) 593-1811",
    "longitude": "-95.08540823899966",
    "address": "300 E. Crockett",
    "emergency_services": "Yes",
    "city": "Cleveland",
    "name": "Cleveland Regional Medical Ctr",
    "url": "cleveland-regional-medical-ctr",
    "zipcode": "77327",
    "provider_number": "450296",
    "hospital ownership": "Proprietary",
    "state": "TX",
    "latitude": "30.342388995000476",
    "_id": 103,
    "type": "Acute Care"
  },
  {
    "phone_number": "(979) 764-5151",
    "longitude": "-96.29126007199966",
    "address": "1604 Rock Prairie Road",
    "emergency_services": "Yes",
    "city": "College Station",
    "name": "College Station Medical Center",
    "url": "college-station-medical-center",
    "zipcode": "77842",
    "provider_number": "450299",
    "hospital ownership": "Proprietary",
    "state": "TX",
    "latitude": "30.582581340000445",
    "_id": 104,
    "type": "Acute Care"
  },
  {
    "phone_number": "(325) 773-2725",
    "longitude": "-99.78509949999966",
    "address": "1601 Columbia St.",
    "emergency_services": "Yes",
    "city": "Stamford",
    "name": "Stamford Memorial Hospital",
    "url": "stamford-memorial-hospital",
    "zipcode": "79553",
    "provider_number": "450306",
    "hospital ownership": "Government - Hospital District or Authority",
    "state": "TX",
    "latitude": "32.92832399000048",
    "_id": 105,
    "type": "Acute Care"
  },
  {
    "phone_number": "(903) 416-4000",
    "longitude": "-96.5861682369997",
    "address": "5016 S U.S. Highway 75",
    "emergency_services": "Yes",
    "city": "Denison",
    "name": "Texoma Medical Center",
    "url": "texoma-medical-center",
    "zipcode": "75020",
    "provider_number": "450324",
    "hospital ownership": "Proprietary",
    "state": "TX",
    "latitude": "33.749752802000444",
    "_id": 106,
    "type": "Acute Care"
  },
  {
    "phone_number": "(281) 341-3000",
    "longitude": "-95.77147825299966",
    "address": "1705 Jackson St.",
    "emergency_services": "Yes",
    "city": "Richmond",
    "name": "Oakbend Medical Center",
    "url": "oakbend-medical-center",
    "zipcode": "77469",
    "provider_number": "450330",
    "hospital ownership": "Government - Hospital District or Authority",
    "state": "TX",
    "latitude": "29.577450550000435",
    "_id": 107,
    "type": "Acute Care"
  },
  {
    "phone_number": "(325) 949-9511",
    "longitude": "-100.4706634529997",
    "address": "3501 Knickerbocker Road",
    "emergency_services": "Yes",
    "city": "San Angelo",
    "name": "San Angelo Community Medical Center",
    "url": "san-angelo-community-medical-center",
    "zipcode": "76904",
    "provider_number": "450340",
    "hospital ownership": "Proprietary",
    "state": "TX",
    "latitude": "31.419648015000462",
    "_id": 108,
    "type": "Acute Care"
  },
  {
    "phone_number": "(409) 212-5012",
    "longitude": "-94.1197409509997",
    "address": "3080 College St.",
    "emergency_services": "Yes",
    "city": "Beaumont",
    "name": "Memorial Hermann Baptist Beaumont Hospital",
    "url": "memorial-hermann-baptist-beaumont-hospital",
    "zipcode": "77701",
    "provider_number": "450346",
    "hospital ownership": "Nonprofit - Church",
    "state": "TX",
    "latitude": "30.068498462000434",
    "_id": 109,
    "type": "Acute Care"
  },
  {
    "phone_number": "(936) 291-3411",
    "longitude": "-95.55842429299969",
    "address": "110 Memorial Hospital Drive",
    "emergency_services": "Yes",
    "city": "Huntsville",
    "name": "Huntsville Memorial Hospital",
    "url": "huntsville-memorial-hospital",
    "zipcode": "77340",
    "provider_number": "450347",
    "hospital ownership": "Government - Hospital District or Authority",
    "state": "TX",
    "latitude": "30.699033104000478",
    "_id": 110,
    "type": "Acute Care"
  },
  {
    "phone_number": "(254) 803-3561",
    "longitude": "-96.89600923499967",
    "address": "322 Coleman St.",
    "emergency_services": "Yes",
    "city": "Marlin",
    "name": "Falls Community Hospital And Clinic",
    "url": "falls-community-hospital-and-clinic",
    "zipcode": "76661",
    "provider_number": "450348",
    "hospital ownership": "Nonprofit - Church",
    "state": "TX",
    "latitude": "31.307455156000458",
    "_id": 111,
    "type": "Acute Care"
  },
  {
    "phone_number": "(254) 965-1500",
    "longitude": "-98.20456580499967",
    "address": "411 N. Belknap St.",
    "emergency_services": "Yes",
    "city": "Stephenville",
    "name": "Texas Health Harris Methodist Hospital Stephenvill",
    "url": "texas-health-harris-methodist-hospital-stephenvill",
    "zipcode": "76401",
    "provider_number": "450351",
    "hospital ownership": "Nonprofit - Church",
    "state": "TX",
    "latitude": "32.222817457000474",
    "_id": 112,
    "type": "Acute Care"
  },
  {
    "phone_number": "(903) 408-5000",
    "longitude": "-96.12338054599968",
    "address": "4215 Joe Ramsey Blvd. ",
    "emergency_services": "Yes",
    "city": "Greenville",
    "name": "Hunt Regional Medical Center",
    "url": "hunt-regional-medical-center",
    "zipcode": "75401",
    "provider_number": "450352",
    "hospital ownership": "Government - Hospital District or Authority",
    "state": "TX",
    "latitude": "33.12343419600046",
    "_id": 113,
    "type": "Acute Care"
  },
  {
    "phone_number": "(713) 790-2221",
    "longitude": "-95.4002913439997",
    "address": "6565 Fannin",
    "emergency_services": "Yes",
    "city": "Houston",
    "name": "Methodist Hospital,The",
    "url": "methodist-hospital-the",
    "zipcode": "77030",
    "provider_number": "450358",
    "hospital ownership": "Nonprofit - Church",
    "state": "TX",
    "latitude": "29.71029073100044",
    "_id": 114,
    "type": "Acute Care"
  },
  {
    "phone_number": "(940) 937-6371",
    "longitude": "-100.30250568299965",
    "address": "901 U.S. Highway 83 North",
    "emergency_services": "Yes",
    "city": "Childress",
    "name": "Childress Regional Medical Center",
    "url": "childress-regional-medical-center",
    "zipcode": "79201",
    "provider_number": "450369",
    "hospital ownership": "Government - Hospital District or Authority",
    "state": "TX",
    "latitude": "34.22713244300047",
    "_id": 115,
    "type": "Acute Care"
  },
  {
    "phone_number": "(979) 732-2371",
    "longitude": "-96.54255730299968",
    "address": "110 Shult Drive",
    "emergency_services": "Yes",
    "city": "Columbus",
    "name": "Columbus Community Hospital",
    "url": "columbus-community-hospital",
    "zipcode": "78934",
    "provider_number": "450370",
    "hospital ownership": "Nonprofit - Church",
    "state": "TX",
    "latitude": "29.694326900000476",
    "_id": 116,
    "type": "Acute Care"
  },
  {
    "phone_number": "(972) 923-7000",
    "longitude": "-96.86474631299967",
    "address": "1405 W. Jefferson St.",
    "emergency_services": "Yes",
    "city": "Waxahachie",
    "name": "Baylor Medical Center At Waxahachie",
    "url": "baylor-medical-center-at-waxahachie",
    "zipcode": "75165",
    "provider_number": "450372",
    "hospital ownership": "Nonprofit - Other",
    "state": "TX",
    "latitude": "32.39664614200046",
    "_id": 117,
    "type": "Acute Care"
  },
  {
    "phone_number": "(903) 537-4552",
    "longitude": "-95.2334694919997",
    "address": "500 S. State Highway 37",
    "emergency_services": "Yes",
    "city": "Mount Vernon",
    "name": "East Texas Medical Center Mount Vernon",
    "url": "east-texas-medical-center-mount-vernon",
    "zipcode": "75457",
    "provider_number": "450373",
    "hospital ownership": "Nonprofit - Other",
    "state": "TX",
    "latitude": "33.17657384000046",
    "_id": 118,
    "type": "Acute Care"
  },
  {
    "phone_number": "(972) 247-1000",
    "longitude": "-96.8701365609997",
    "address": "7 Medical Parkway",
    "emergency_services": "Yes",
    "city": "Dallas",
    "name": "Dallas Medical Center",
    "url": "dallas-medical-center",
    "zipcode": "75234",
    "provider_number": "450379",
    "hospital ownership": "Proprietary",
    "state": "TX",
    "latitude": "32.915007724000475",
    "_id": 119,
    "type": "Acute Care"
  },
  {
    "phone_number": "(210) 575-4000",
    "longitude": "-98.57381969799968",
    "address": "7700 Floyd Curl Drive",
    "emergency_services": "Yes",
    "city": "San Antonio",
    "name": "Methodist Hospital",
    "url": "methodist-hospital",
    "zipcode": "78229",
    "provider_number": "450388",
    "hospital ownership": "Proprietary",
    "state": "TX",
    "latitude": "29.508905215000482",
    "_id": 120,
    "type": "Acute Care"
  },
  {
    "phone_number": "(903) 676-1000",
    "longitude": "-95.84364004699967",
    "address": "2000 S. Palestine",
    "emergency_services": "Yes",
    "city": "Athens",
    "name": "East Texas Medical Center Athens",
    "url": "east-texas-medical-center-athens",
    "zipcode": "75751",
    "provider_number": "450389",
    "hospital ownership": "Nonprofit - Church",
    "state": "TX",
    "latitude": "32.170739383000466",
    "_id": 121,
    "type": "Acute Care"
  },
  {
    "phone_number": "(936) 327-4381",
    "longitude": "-94.9377741079997",
    "address": "1717 Highway 59 Bypass",
    "emergency_services": "Yes",
    "city": "Livingston",
    "name": "Memorial Medical Center Livingston",
    "url": "memorial-medical-center-livingston",
    "zipcode": "77351",
    "provider_number": "450395",
    "hospital ownership": "Nonprofit - Church",
    "state": "TX",
    "latitude": "30.730405473000474",
    "_id": 122,
    "type": "Acute Care"
  },
  {
    "phone_number": "(806) 637-3551",
    "longitude": "-102.26764383899967",
    "address": "705 E. Felt St.",
    "emergency_services": "Yes",
    "city": "Brownfield",
    "name": "Brownfield Regional Medical Center",
    "url": "brownfield-regional-medical-center",
    "zipcode": "79316",
    "provider_number": "450399",
    "hospital ownership": "Government - Hospital District or Authority",
    "state": "TX",
    "latitude": "33.18710909200047",
    "_id": 123,
    "type": "Acute Care"
  },
  {
    "phone_number": "(254) 562-5332",
    "longitude": "-96.48009801599966",
    "address": "600 S. Bonham St.",
    "emergency_services": "Yes",
    "city": "Mexia",
    "name": "Parkview Regional Hospital",
    "url": "parkview-regional-hospital",
    "zipcode": "76667",
    "provider_number": "450400",
    "hospital ownership": "Proprietary",
    "state": "TX",
    "latitude": "31.675868382000488",
    "_id": 124,
    "type": "Acute Care"
  },
  {
    "phone_number": "(972) 547-8000",
    "longitude": "-96.6355275309997",
    "address": "4500 Medical Center Drive",
    "emergency_services": "Yes",
    "city": "Mckinney",
    "name": "Medical Center Of Mckinney",
    "url": "medical-center-of-mckinney",
    "zipcode": "75069",
    "provider_number": "450403",
    "hospital ownership": "Proprietary",
    "state": "TX",
    "latitude": "33.16164324900046",
    "_id": 125,
    "type": "Acute Care"
  },
  {
    "phone_number": "(254) 629-2601",
    "longitude": "-98.82156238499965",
    "address": "304 S. Daugherty",
    "emergency_services": "Yes",
    "city": "Eastland",
    "name": "Eastland Memorial Hospital",
    "url": "eastland-memorial-hospital",
    "zipcode": "76448",
    "provider_number": "450411",
    "hospital ownership": "Government - Hospital District or Authority",
    "state": "TX",
    "latitude": "32.40017699600048",
    "_id": 126,
    "type": "Acute Care"
  },
  {
    "phone_number": "(817) 444-8700",
    "longitude": "-97.53374465599967",
    "address": "108 Denver Trail",
    "emergency_services": "Yes",
    "city": "Azle",
    "name": "Texas Health Harris Methodist Hospital Azle",
    "url": "texas-health-harris-methodist-hospital-azle",
    "zipcode": "76020",
    "provider_number": "450419",
    "hospital ownership": "Nonprofit - Church",
    "state": "TX",
    "latitude": "32.88116677400046",
    "_id": 127,
    "type": "Acute Care"
  },
  {
    "phone_number": "(214) 443-3000",
    "longitude": "-96.79415059699966",
    "address": "2727 E. Lemmon Ave. Building I",
    "emergency_services": "Yes",
    "city": "Dallas",
    "name": "Baylor Medical Center At Uptown",
    "url": "baylor-medical-center-at-uptown",
    "zipcode": "75204",
    "provider_number": "450422",
    "hospital ownership": "Nonprofit - Church",
    "state": "TX",
    "latitude": "32.80375231500045",
    "_id": 128,
    "type": "Acute Care"
  },
  {
    "phone_number": "(281) 420-8600",
    "longitude": "-94.97760168799965",
    "address": "4401 Garth Road",
    "emergency_services": "Yes",
    "city": "Baytown",
    "name": "San Jacinto Methodist Hospital",
    "url": "san-jacinto-methodist-hospital",
    "zipcode": "77521",
    "provider_number": "450424",
    "hospital ownership": "Nonprofit - Church",
    "state": "TX",
    "latitude": "29.76918987500045",
    "_id": 129,
    "type": "Acute Care"
  },
  {
    "phone_number": "(512) 476-7111",
    "longitude": "-97.72667312899966",
    "address": "919 E. 32nd St.",
    "emergency_services": "Yes",
    "city": "Austin",
    "name": "St David's Medical Center",
    "url": "st-david-s-medical-center",
    "zipcode": "78705",
    "provider_number": "450431",
    "hospital ownership": "Nonprofit - Church",
    "state": "TX",
    "latitude": "30.290795555000443",
    "_id": 130,
    "type": "Acute Care"
  },
  {
    "phone_number": "(713) 526-2441",
    "longitude": "-95.3605840729997",
    "address": "3204 Ennis St.",
    "emergency_services": "Yes",
    "city": "Houston",
    "name": "Riverside General Hospital",
    "url": "riverside-general-hospital",
    "zipcode": "77004",
    "provider_number": "450446",
    "hospital ownership": "Nonprofit - Church",
    "state": "TX",
    "latitude": "29.730508243000486",
    "_id": 131,
    "type": "Acute Care"
  },
  {
    "phone_number": "(903) 654-6800",
    "longitude": "-96.50253531399966",
    "address": "3201 W. Highway 22",
    "emergency_services": "Yes",
    "city": "Corsicana",
    "name": "Navarro Regional Hospital",
    "url": "navarro-regional-hospital",
    "zipcode": "75110",
    "provider_number": "450447",
    "hospital ownership": "Proprietary",
    "state": "TX",
    "latitude": "32.08492169900046",
    "_id": 132,
    "type": "Acute Care"
  },
  {
    "phone_number": "(254) 897-2215",
    "longitude": "-97.74732198399965",
    "address": "1021 Holden St.",
    "emergency_services": "Yes",
    "city": "Glen Rose",
    "name": "Glen Rose Medical Center",
    "url": "glen-rose-medical-center",
    "zipcode": "76043",
    "provider_number": "450451",
    "hospital ownership": "Government - Hospital District or Authority",
    "state": "TX",
    "latitude": "32.241272730000446",
    "_id": 133,
    "type": "Acute Care"
  },
  {
    "phone_number": "(409) 283-8141",
    "longitude": "-94.4278455759997",
    "address": "1100 W. Bluff",
    "emergency_services": "Yes",
    "city": "Woodville",
    "name": "Tyler County Hospital",
    "url": "tyler-county-hospital",
    "zipcode": "75979",
    "provider_number": "450460",
    "hospital ownership": "Government - Hospital District or Authority",
    "state": "TX",
    "latitude": "30.77530155800048",
    "_id": 134,
    "type": "Acute Care"
  },
  {
    "phone_number": "(214) 345-6789",
    "longitude": "-96.76334545699967",
    "address": "8200 Walnut Hill Lane",
    "emergency_services": "Yes",
    "city": "Dallas",
    "name": "Texas Health Presbyterian Hospital  Dallas",
    "url": "texas-health-presbyterian-hospital-dallas",
    "zipcode": "75231",
    "provider_number": "450462",
    "hospital ownership": "Nonprofit - Church",
    "state": "TX",
    "latitude": "32.88317316400048",
    "_id": 135,
    "type": "Acute Care"
  },
  {
    "phone_number": "(979) 245-6383",
    "longitude": "-95.99135590199967",
    "address": "104 7th St.",
    "emergency_services": "Yes",
    "city": "Bay City",
    "name": "Matagorda Regional Medical Center",
    "url": "matagorda-regional-medical-center",
    "zipcode": "77414",
    "provider_number": "450465",
    "hospital ownership": "Government - Hospital District or Authority",
    "state": "TX",
    "latitude": "28.982807127000456",
    "_id": 136,
    "type": "Acute Care"
  },
  {
    "phone_number": "(903) 870-4611",
    "longitude": "-96.62358275999969",
    "address": "500 N. Highland Ave.",
    "emergency_services": "Yes",
    "city": "Sherman",
    "name": "Texas Health Presbyterian Hospital-WNJ",
    "url": "texas-health-presbyterian-hospital-wnj",
    "zipcode": "75091",
    "provider_number": "450469",
    "hospital ownership": "Nonprofit - Other",
    "state": "TX",
    "latitude": "33.63807317900046",
    "_id": 137,
    "type": "Acute Care"
  },
  {
    "phone_number": "(903) 657-7541",
    "longitude": "-94.7963275249997",
    "address": "300 Wilson St.",
    "emergency_services": "Yes",
    "city": "Henderson",
    "name": "Etmc Henderson",
    "url": "etmc-henderson",
    "zipcode": "75652",
    "provider_number": "450475",
    "hospital ownership": "Nonprofit - Church",
    "state": "TX",
    "latitude": "32.16161490200045",
    "_id": 138,
    "type": "Acute Care"
  },
  {
    "phone_number": "(936) 634-8311",
    "longitude": "-94.75614351799965",
    "address": "505 S. John Redditt Drive",
    "emergency_services": "Yes",
    "city": "Lufkin",
    "name": "Woodland Heights Medical Center",
    "url": "woodland-heights-medical-center",
    "zipcode": "75904",
    "provider_number": "450484",
    "hospital ownership": "Proprietary",
    "state": "TX",
    "latitude": "31.327920699000458",
    "_id": 139,
    "type": "Acute Care"
  },
  {
    "phone_number": "(903) 984-3505",
    "longitude": "-94.86916780799964",
    "address": "1612 S. Henderson Blvd.",
    "emergency_services": "No",
    "city": "Kilgore",
    "name": "Allegiance Specialty Hospital Of Kilgore",
    "url": "allegiance-specialty-hospital-of-kilgore",
    "zipcode": "75662",
    "provider_number": "450488",
    "hospital ownership": "Proprietary",
    "state": "TX",
    "latitude": "32.37452966300049",
    "_id": 140,
    "type": "Acute Care"
  },
  {
    "phone_number": "(806) 872-2183",
    "longitude": "-101.96040809699969",
    "address": "2200 N. Bryan Ave.",
    "emergency_services": "Yes",
    "city": "Lamesa",
    "name": "Medical Arts Hospital",
    "url": "medical-arts-hospital",
    "zipcode": "79331",
    "provider_number": "450489",
    "hospital ownership": "Government - Hospital District or Authority",
    "state": "TX",
    "latitude": "32.73021189400049",
    "_id": 141,
    "type": "Acute Care"
  },
  {
    "phone_number": "(940) 872-1126",
    "longitude": "-97.83515076799966",
    "address": "705 East Greenwood Ave.",
    "emergency_services": "Yes",
    "city": "Bowie",
    "name": "Bowie Memorial Hospital",
    "url": "bowie-memorial-hospital",
    "zipcode": "76230",
    "provider_number": "450497",
    "hospital ownership": "Government - Hospital District or Authority",
    "state": "TX",
    "latitude": "33.56184312500045",
    "_id": 142,
    "type": "Acute Care"
  },
  {
    "phone_number": "(254) 559-2241",
    "longitude": "-98.8876965229997",
    "address": "200 S. Geneva",
    "emergency_services": "Yes",
    "city": "Breckenridge",
    "name": "Stephens Memorial Hospital",
    "url": "stephens-memorial-hospital",
    "zipcode": "76424",
    "provider_number": "450498",
    "hospital ownership": "Government - Local",
    "state": "TX",
    "latitude": "32.75459321800048",
    "_id": 143,
    "type": "Acute Care"
  },
  {
    "phone_number": "(936) 564-4611",
    "longitude": "-94.6494220409997",
    "address": "1204 Mound St.",
    "emergency_services": "Yes",
    "city": "Nacogdoches",
    "name": "Memorial Hospital",
    "url": "memorial-hospital",
    "zipcode": "75961",
    "provider_number": "450508",
    "hospital ownership": "Government - Hospital District or Authority",
    "state": "TX",
    "latitude": "31.613900249000437",
    "_id": 144,
    "type": "Acute Care"
  },
  {
    "phone_number": "(409) 853-5900",
    "longitude": "-93.98927823799966",
    "address": "2555 Jimmy Johnson Blvd.",
    "emergency_services": "Yes",
    "city": "Port Arthur",
    "name": "The Medical Center Of Southeast Texas",
    "url": "the-medical-center-of-southeast-texas",
    "zipcode": "77640",
    "provider_number": "450518",
    "hospital ownership": "Proprietary",
    "state": "TX",
    "latitude": "29.93363685200046",
    "_id": 145,
    "type": "Acute Care"
  },
  {
    "phone_number": "(972) 498-4000",
    "longitude": "-96.72739033699969",
    "address": "401 W. Campbell Road",
    "emergency_services": "Yes",
    "city": "Richardson",
    "name": "Methodist Richardson Medical Center",
    "url": "methodist-richardson-medical-center",
    "zipcode": "75080",
    "provider_number": "450537",
    "hospital ownership": "Government - Hospital District or Authority",
    "state": "TX",
    "latitude": "32.975322597000456",
    "_id": 146,
    "type": "Acute Care"
  },
  {
    "phone_number": "(806) 296-5531",
    "longitude": "-101.73222900499968",
    "address": "2601 Dimmit Road",
    "emergency_services": "Yes",
    "city": "Plainview",
    "name": "Covenant Hospital Plainview",
    "url": "covenant-hospital-plainview",
    "zipcode": "79072",
    "provider_number": "450539",
    "hospital ownership": "Nonprofit - Church",
    "state": "TX",
    "latitude": "34.20771732500049",
    "_id": 147,
    "type": "Acute Care"
  },
  {
    "phone_number": "(325) 428-1000",
    "longitude": "-99.78593759799969",
    "address": "6250 Highway 83/84",
    "emergency_services": "Yes",
    "city": "Abilene",
    "name": "Abilene Regional Medical Center",
    "url": "abilene-regional-medical-center",
    "zipcode": "79606",
    "provider_number": "450558",
    "hospital ownership": "Proprietary",
    "state": "TX",
    "latitude": "32.39045117900048",
    "_id": 148,
    "type": "Acute Care"
  },
  {
    "phone_number": "(817) 481-1588",
    "longitude": "-97.09306020599968",
    "address": "1650 W. College St.",
    "emergency_services": "Yes",
    "city": "Grapevine",
    "name": "Baylor Regional Medical Center At Grapevine",
    "url": "baylor-regional-medical-center-at-grapevine",
    "zipcode": "76051",
    "provider_number": "450563",
    "hospital ownership": "Nonprofit - Church",
    "state": "TX",
    "latitude": "32.935572627000454",
    "_id": 149,
    "type": "Acute Care"
  },
  {
    "phone_number": "(940) 325-7891",
    "longitude": "-98.14558180799969",
    "address": "400 Sw. 25th Ave.",
    "emergency_services": "Yes",
    "city": "Mineral Wells",
    "name": "Palo Pinto General Hospital",
    "url": "palo-pinto-general-hospital",
    "zipcode": "76067",
    "provider_number": "450565",
    "hospital ownership": "Government - Hospital District or Authority",
    "state": "TX",
    "latitude": "32.79953394500046",
    "_id": 150,
    "type": "Acute Care"
  },
  {
    "phone_number": "(325) 653-6741",
    "longitude": "-100.43456857099966",
    "address": "120 E. Harris Ave.",
    "emergency_services": "Yes",
    "city": "San Angelo",
    "name": "Shannon Medical Center",
    "url": "shannon-medical-center",
    "zipcode": "76903",
    "provider_number": "450571",
    "hospital ownership": "Nonprofit - Church",
    "state": "TX",
    "latitude": "31.464676898000448",
    "_id": 151,
    "type": "Acute Care"
  },
  {
    "phone_number": "(409) 384-5461",
    "longitude": "-94.00847214299966",
    "address": "1275 Marvin Hancock Drive",
    "emergency_services": "Yes",
    "city": "Jasper",
    "name": "Christus Jasper Memorial Hospital",
    "url": "christus-jasper-memorial-hospital",
    "zipcode": "75951",
    "provider_number": "450573",
    "hospital ownership": "Government - Hospital District or Authority",
    "state": "TX",
    "latitude": "30.908100824000485",
    "_id": 152,
    "type": "Acute Care"
  },
  {
    "phone_number": "(806) 323-6622",
    "longitude": "-100.38741821999969",
    "address": "1020 S. 4th St.",
    "emergency_services": "Yes",
    "city": "Canadian",
    "name": "Hemphill County Hospital",
    "url": "hemphill-county-hospital",
    "zipcode": "79014",
    "provider_number": "450578",
    "hospital ownership": "Government - Hospital District or Authority",
    "state": "TX",
    "latitude": "35.905193006000445",
    "_id": 153,
    "type": "Acute Care"
  },
  {
    "phone_number": "(936) 546-3862",
    "longitude": "-95.4732285239997",
    "address": "1100 Loop 304 East",
    "emergency_services": "Yes",
    "city": "Crockett",
    "name": "East Texas Medical Center Crockett",
    "url": "east-texas-medical-center-crockett",
    "zipcode": "75835",
    "provider_number": "450580",
    "hospital ownership": "Nonprofit - Church",
    "state": "TX",
    "latitude": "31.312390140000446",
    "_id": 154,
    "type": "Acute Care"
  },
  {
    "phone_number": "(940) 552-9351",
    "longitude": "-99.31391189899966",
    "address": "920 Hillcrest Drive",
    "emergency_services": "Yes",
    "city": "Vernon",
    "name": "Wilbarger General Hospital",
    "url": "wilbarger-general-hospital",
    "zipcode": "76384",
    "provider_number": "450584",
    "hospital ownership": "Government - Hospital District or Authority",
    "state": "TX",
    "latitude": "34.16101687900044",
    "_id": 155,
    "type": "Acute Care"
  },
  {
    "phone_number": "(940) 889-5572",
    "longitude": "-99.24752348999965",
    "address": "200 Stadium Drive",
    "emergency_services": "Yes",
    "city": "Seymour",
    "name": "Seymour Hospital",
    "url": "seymour-hospital",
    "zipcode": "76380",
    "provider_number": "450586",
    "hospital ownership": "Government - Hospital District or Authority",
    "state": "TX",
    "latitude": "33.58938580200049",
    "_id": 156,
    "type": "Acute Care"
  },
  {
    "phone_number": "(325) 646-8541",
    "longitude": "-98.9923817459997",
    "address": "1501 Burnet Drive",
    "emergency_services": "Yes",
    "city": "Brownwood",
    "name": "Brownwood Regional Medical Center",
    "url": "brownwood-regional-medical-center",
    "zipcode": "76801",
    "provider_number": "450587",
    "hospital ownership": "Proprietary",
    "state": "TX",
    "latitude": "31.677058114000488",
    "_id": 157,
    "type": "Acute Care"
  },
  {
    "phone_number": "(979) 849-7721",
    "longitude": "-95.40372026899968",
    "address": "132 Hospital Drive",
    "emergency_services": "Yes",
    "city": "Angleton",
    "name": "Angleton-Danbury Medical Center",
    "url": "angleton-danbury-medical-center",
    "zipcode": "77515",
    "provider_number": "450591",
    "hospital ownership": "Government - Hospital District or Authority",
    "state": "TX",
    "latitude": "29.185163443000476",
    "_id": 158,
    "type": "Acute Care"
  },
  {
    "phone_number": "(817) 573-2683",
    "longitude": "-97.80308886499967",
    "address": "1310 Paluxy Road",
    "emergency_services": "Yes",
    "city": "Granbury",
    "name": "Lake Granbury Medical Center",
    "url": "lake-granbury-medical-center",
    "zipcode": "76048",
    "provider_number": "450596",
    "hospital ownership": "Proprietary",
    "state": "TX",
    "latitude": "32.431553060000454",
    "_id": 159,
    "type": "Acute Care"
  },
  {
    "phone_number": "(361) 275-6191",
    "longitude": "-97.28150941999968",
    "address": "2550 N. Esplanade",
    "emergency_services": "Yes",
    "city": "Cuero",
    "name": "Cuero Community Hospital",
    "url": "cuero-community-hospital",
    "zipcode": "77954",
    "provider_number": "450597",
    "hospital ownership": "Government - Hospital District or Authority",
    "state": "TX",
    "latitude": "29.113191286000472",
    "_id": 160,
    "type": "Acute Care"
  },
  {
    "phone_number": "(830) 997-4353",
    "longitude": "-98.88031646699966",
    "address": "1020 S. State Highway 16",
    "emergency_services": "Yes",
    "city": "Fredericksburg",
    "name": "Hill Country Memorial Hospital Inc",
    "url": "hill-country-memorial-hospital-inc",
    "zipcode": "78624",
    "provider_number": "450604",
    "hospital ownership": "Nonprofit - Church",
    "state": "TX",
    "latitude": "30.26237446300047",
    "_id": 161,
    "type": "Acute Care"
  },
  {
    "phone_number": "(361) 758-8585",
    "longitude": "-97.16199247699967",
    "address": "1711 W. Wheeler Ave.",
    "emergency_services": "Yes",
    "city": "Aransas Pass",
    "name": "Care Regional Medical Center",
    "url": "care-regional-medical-center",
    "zipcode": "78336",
    "provider_number": "450605",
    "hospital ownership": "Proprietary",
    "state": "TX",
    "latitude": "27.91595230000047",
    "_id": 162,
    "type": "Acute Care"
  },
  {
    "phone_number": "(806) 355-9703",
    "longitude": "-101.9047359269997",
    "address": "6010 Amarillo Blvd. West",
    "emergency_services": "No",
    "city": "Amarillo",
    "name": "Va Amarillo Healthcare System",
    "url": "va-amarillo-healthcare-system",
    "zipcode": "79106",
    "provider_number": "45060F",
    "hospital ownership": "Government Federal",
    "state": "TX",
    "latitude": "35.20360463500049",
    "_id": 163,
    "type": "Acute Care - Veterans Administration"
  },
  {
    "phone_number": "(713) 242-3000",
    "longitude": "-95.54460080099966",
    "address": "921 Gessner",
    "emergency_services": "Yes",
    "city": "Houston",
    "name": "Memorial Hermann Memorial City Medical Center",
    "url": "memorial-hermann-memorial-city-medical-center",
    "zipcode": "77024",
    "provider_number": "450610",
    "hospital ownership": "Nonprofit - Church",
    "state": "TX",
    "latitude": "29.780033701000434",
    "_id": 164,
    "type": "Acute Care"
  },
  {
    "phone_number": "(281) 332-2511",
    "longitude": "-95.12728855299969",
    "address": "500 Medical Center Blvd.",
    "emergency_services": "Yes",
    "city": "Webster",
    "name": "Clear Lake Regional Medical Center",
    "url": "clear-lake-regional-medical-center",
    "zipcode": "77598",
    "provider_number": "450617",
    "hospital ownership": "Proprietary",
    "state": "TX",
    "latitude": "29.54037260800044",
    "_id": 165,
    "type": "Acute Care"
  },
  {
    "phone_number": "(830) 876-2424",
    "longitude": "-99.86260120299966",
    "address": "704 Hospital Drive",
    "emergency_services": "Yes",
    "city": "Carrizo Springs",
    "name": "Dimmit Regional Hospital",
    "url": "dimmit-regional-hospital",
    "zipcode": "78834",
    "provider_number": "450620",
    "hospital ownership": "Government - Hospital District or Authority",
    "state": "TX",
    "latitude": "28.519649485000457",
    "_id": 166,
    "type": "Acute Care"
  },
  {
    "phone_number": "(940) 384-3535",
    "longitude": "-97.0955362629997",
    "address": "3535 S. Interstate 35 East",
    "emergency_services": "Yes",
    "city": "Denton",
    "name": "Denton Regional Medical Center",
    "url": "denton-regional-medical-center",
    "zipcode": "76210",
    "provider_number": "450634",
    "hospital ownership": "Proprietary",
    "state": "TX",
    "latitude": "33.15170048800047",
    "_id": 167,
    "type": "Acute Care"
  },
  {
    "phone_number": "(281) 440-1000",
    "longitude": "-95.43963368899966",
    "address": "710 Fm 1960 West",
    "emergency_services": "Yes",
    "city": "Houston",
    "name": "Houston Northwest Medical Center",
    "url": "houston-northwest-medical-center",
    "zipcode": "77090",
    "provider_number": "450638",
    "hospital ownership": "Proprietary",
    "state": "TX",
    "latitude": "30.018112533000476",
    "_id": 168,
    "type": "Acute Care"
  },
  {
    "phone_number": "(817) 848-4000",
    "longitude": "-97.12518524299969",
    "address": "1600 Hospital Parkway",
    "emergency_services": "Yes",
    "city": "Bedford",
    "name": "Texas Health Harris Methodist Hurst-Euless-Bedford",
    "url": "texas-health-harris-methodist-hurst-euless-bedford",
    "zipcode": "76022",
    "provider_number": "450639",
    "hospital ownership": "Nonprofit - Church",
    "state": "TX",
    "latitude": "32.83286399500048",
    "_id": 169,
    "type": "Acute Care"
  },
  {
    "phone_number": "(432) 263-7361",
    "longitude": "-101.47114698999968",
    "address": "300 Veterans Blvd.",
    "emergency_services": "No",
    "city": "Big Spring",
    "name": "Va West Texas Healthcare System",
    "url": "va-west-texas-healthcare-system",
    "zipcode": "79720",
    "provider_number": "45063F",
    "hospital ownership": "Government Federal",
    "state": "TX",
    "latitude": "32.23184502400045",
    "_id": 170,
    "type": "Acute Care - Veterans Administration"
  },
  {
    "phone_number": "(940) 825-3235",
    "longitude": "-97.73160329699965",
    "address": "100 Park Road",
    "emergency_services": "Yes",
    "city": "Nocona",
    "name": "Nocona General Hospital",
    "url": "nocona-general-hospital",
    "zipcode": "76255",
    "provider_number": "450641",
    "hospital ownership": "Government - Hospital District or Authority",
    "state": "TX",
    "latitude": "33.77666907900044",
    "_id": 171,
    "type": "Acute Care"
  },
  {
    "phone_number": "(956) 523-2000",
    "longitude": "-99.47676853899969",
    "address": "10700 Mc Pherson Road",
    "emergency_services": "Yes",
    "city": "Laredo",
    "name": "Doctors Hospital Of Laredo",
    "url": "doctors-hospital-of-laredo",
    "zipcode": "78041",
    "provider_number": "450643",
    "hospital ownership": "Proprietary",
    "state": "TX",
    "latitude": "27.608707212000468",
    "_id": 172,
    "type": "Acute Care"
  },
  {
    "phone_number": "(281) 588-8080",
    "longitude": "-95.5932092169997",
    "address": "12141 Richmond Ave.",
    "emergency_services": "Yes",
    "city": "Houston",
    "name": "West Houston Medical Center",
    "url": "west-houston-medical-center",
    "zipcode": "77082",
    "provider_number": "450644",
    "hospital ownership": "Proprietary",
    "state": "TX",
    "latitude": "29.73056272600047",
    "_id": 173,
    "type": "Acute Care"
  },
  {
    "phone_number": "(972) 566-6222",
    "longitude": "-96.77213011799967",
    "address": "7777 Forest Lane",
    "emergency_services": "Yes",
    "city": "Dallas",
    "name": "Medical City Dallas Hospital",
    "url": "medical-city-dallas-hospital",
    "zipcode": "75230",
    "provider_number": "450647",
    "hospital ownership": "Proprietary",
    "state": "TX",
    "latitude": "32.90947736500044",
    "_id": 174,
    "type": "Acute Care"
  },
  {
    "phone_number": "(972) 596-6800",
    "longitude": "-96.7657237519997",
    "address": "3901 W. 15th St.",
    "emergency_services": "Yes",
    "city": "Plano",
    "name": "Medical Center Of Plano",
    "url": "medical-center-of-plano",
    "zipcode": "75075",
    "provider_number": "450651",
    "hospital ownership": "Proprietary",
    "state": "TX",
    "latitude": "33.019377894000456",
    "_id": 175,
    "type": "Acute Care"
  },
  {
    "phone_number": "(432) 263-1211",
    "longitude": "-101.49303512499966",
    "address": "1601 W. 11th Place",
    "emergency_services": "Yes",
    "city": "Big Spring",
    "name": "Scenic Mountain Medical Center",
    "url": "scenic-mountain-medical-center",
    "zipcode": "79720",
    "provider_number": "450653",
    "hospital ownership": "Proprietary",
    "state": "TX",
    "latitude": "32.23982321000045",
    "_id": 176,
    "type": "Acute Care"
  },
  {
    "phone_number": "(956) 487-5561",
    "longitude": "-98.79654943099968",
    "address": "128  N. Fm 3167",
    "emergency_services": "Yes",
    "city": "Rio Grande City",
    "name": "Starr County Memorial Hospital",
    "url": "starr-county-memorial-hospital",
    "zipcode": "78582",
    "provider_number": "450654",
    "hospital ownership": "Government - Hospital District or Authority",
    "state": "TX",
    "latitude": "26.376012012000444",
    "_id": 177,
    "type": "Acute Care"
  },
  {
    "phone_number": "(936) 569-9481",
    "longitude": "-94.62222909499968",
    "address": "4920 N.E. Stallings Drive",
    "emergency_services": "Yes",
    "city": "Nacogdoches",
    "name": "Nacogdoches Medical Center",
    "url": "nacogdoches-medical-center",
    "zipcode": "75961",
    "provider_number": "450656",
    "hospital ownership": "Nonprofit - Other",
    "state": "TX",
    "latitude": "31.583861306000472",
    "_id": 178,
    "type": "Acute Care"
  },
  {
    "phone_number": "(903) 389-1612",
    "longitude": "-96.1696530589997",
    "address": "125 Newman St.",
    "emergency_services": "Yes",
    "city": "Fairfield",
    "name": "East Texas Medical Center - Fairfield",
    "url": "east-texas-medical-center-fairfield",
    "zipcode": "75840",
    "provider_number": "450658",
    "hospital ownership": "Nonprofit - Church",
    "state": "TX",
    "latitude": "31.725601140000435",
    "_id": 179,
    "type": "Acute Care"
  },
  {
    "phone_number": "(713) 527-5019",
    "longitude": "-95.38809553799967",
    "address": "1313 Hermann Drive",
    "emergency_services": "Yes",
    "city": "Houston",
    "name": "Park Plaza Hospital",
    "url": "park-plaza-hospital",
    "zipcode": "77004",
    "provider_number": "450659",
    "hospital ownership": "Proprietary",
    "state": "TX",
    "latitude": "29.72244478300047",
    "_id": 180,
    "type": "Acute Care"
  },
  {
    "phone_number": "(432) 582-8340",
    "longitude": "-102.36636533099966",
    "address": "520 E. 6th St.",
    "emergency_services": "Yes",
    "city": "Odessa",
    "name": "Odessa Regional Hospital",
    "url": "odessa-regional-hospital",
    "zipcode": "79761",
    "provider_number": "450661",
    "hospital ownership": "Proprietary",
    "state": "TX",
    "latitude": "31.85123502200048",
    "_id": 181,
    "type": "Acute Care"
  },
  {
    "phone_number": "(956) 350-7000",
    "longitude": "-97.47837904299968",
    "address": "100 E. Alton Gloor Blvd.",
    "emergency_services": "Yes",
    "city": "Brownsville",
    "name": "Valley Regional Medical Center",
    "url": "valley-regional-medical-center",
    "zipcode": "78526",
    "provider_number": "450662",
    "hospital ownership": "Proprietary",
    "state": "TX",
    "latitude": "25.969992973000444",
    "_id": 182,
    "type": "Acute Care"
  },
  {
    "phone_number": "(915) 747-4000",
    "longitude": "-106.47969310699966",
    "address": "1625 Medical Center Drive",
    "emergency_services": "Yes",
    "city": "El Paso",
    "name": "Sierra Medical Center",
    "url": "sierra-medical-center",
    "zipcode": "79902",
    "provider_number": "450668",
    "hospital ownership": "Proprietary",
    "state": "TX",
    "latitude": "31.778121413000463",
    "_id": 183,
    "type": "Acute Care"
  },
  {
    "phone_number": "(972) 420-1000",
    "longitude": "-97.00475062899966",
    "address": "500 W. Main St.",
    "emergency_services": "Yes",
    "city": "Lewisville",
    "name": "Medical Center Of Lewisville",
    "url": "medical-center-of-lewisville",
    "zipcode": "75057",
    "provider_number": "450669",
    "hospital ownership": "Nonprofit - Church",
    "state": "TX",
    "latitude": "33.04625333100046",
    "_id": 184,
    "type": "Acute Care"
  },
  {
    "phone_number": "(214) 742-8387",
    "longitude": "-96.79289965699968",
    "address": "4500 S. Lancaster Road",
    "emergency_services": "No",
    "city": "Dallas",
    "name": "Dallas Va Medical Center - Va North Texas",
    "url": "dallas-va-medical-center-va-north-texas",
    "zipcode": "75216",
    "provider_number": "45066F",
    "hospital ownership": "Government Federal",
    "state": "TX",
    "latitude": "32.69410704800049",
    "_id": 185,
    "type": "Acute Care - Veterans Administration"
  },
  {
    "phone_number": "(281) 351-1623",
    "longitude": "-95.62389203199967",
    "address": "605 Holderrieth",
    "emergency_services": "Yes",
    "city": "Tomball",
    "name": "Tomball Regional Medical Center",
    "url": "tomball-regional-medical-center",
    "zipcode": "77375",
    "provider_number": "450670",
    "hospital ownership": "Government - Hospital District or Authority",
    "state": "TX",
    "latitude": "30.089252889000477",
    "_id": 186,
    "type": "Acute Care"
  },
  {
    "phone_number": "(817) 336-2100",
    "longitude": "-97.34374819899966",
    "address": "900 Eighth Ave.",
    "emergency_services": "Yes",
    "city": "Fort Worth",
    "name": "Plaza Medical Center Of Fort Worth",
    "url": "plaza-medical-center-of-fort-worth",
    "zipcode": "76104",
    "provider_number": "450672",
    "hospital ownership": "Proprietary",
    "state": "TX",
    "latitude": "32.734543422000456",
    "_id": 187,
    "type": "Acute Care"
  },
  {
    "phone_number": "(713) 790-1234",
    "longitude": "-95.40136210899965",
    "address": "7600 Fannin",
    "emergency_services": "Yes",
    "city": "Houston",
    "name": "Womans Hospital Of Texas,The",
    "url": "womans-hospital-of-texas-the",
    "zipcode": "77054",
    "provider_number": "450674",
    "hospital ownership": "Proprietary",
    "state": "TX",
    "latitude": "29.692731500000434",
    "_id": 188,
    "type": "Acute Care"
  },
  {
    "phone_number": "(817) 465-3241",
    "longitude": "-97.11475069399967",
    "address": "3301 Matlock Road",
    "emergency_services": "Yes",
    "city": "Arlington",
    "name": "Medical Center Of Arlington",
    "url": "medical-center-of-arlington",
    "zipcode": "76015",
    "provider_number": "450675",
    "hospital ownership": "Proprietary",
    "state": "TX",
    "latitude": "32.69195030800046",
    "_id": 189,
    "type": "Acute Care"
  },
  {
    "phone_number": "(817) 293-9110",
    "longitude": "-97.31902708199965",
    "address": "11801 South Freeway",
    "emergency_services": "Yes",
    "city": "Burleson",
    "name": "Huguley Memorial Medical Center",
    "url": "huguley-memorial-medical-center",
    "zipcode": "76028",
    "provider_number": "450677",
    "hospital ownership": "Nonprofit - Church",
    "state": "TX",
    "latitude": "32.55265003000045",
    "_id": 190,
    "type": "Acute Care"
  },
  {
    "phone_number": "(214) 324-6100",
    "longitude": "-96.70554271799966",
    "address": "9440 Poppy Drive",
    "emergency_services": "Yes",
    "city": "Dallas",
    "name": "Doctors Hospital",
    "url": "doctors-hospital",
    "zipcode": "75218",
    "provider_number": "450678",
    "hospital ownership": "Proprietary",
    "state": "TX",
    "latitude": "32.835283932000436",
    "_id": 191,
    "type": "Acute Care"
  },
  {
    "phone_number": "(281) 540-7700",
    "longitude": "-95.27491099799965",
    "address": "18951 Memorial North",
    "emergency_services": "Yes",
    "city": "Humble",
    "name": "Memorial Hermann Northeast",
    "url": "memorial-hermann-northeast",
    "zipcode": "77338",
    "provider_number": "450684",
    "hospital ownership": "Government - Hospital District or Authority",
    "state": "TX",
    "latitude": "29.995915451000485",
    "_id": 192,
    "type": "Acute Care"
  },
  {
    "phone_number": "(806) 775-8200",
    "longitude": "-101.88780712299967",
    "address": "602 Indiana Ave.",
    "emergency_services": "Yes",
    "city": "Lubbock",
    "name": "University Medical Center",
    "url": "university-medical-center",
    "zipcode": "79415",
    "provider_number": "450686",
    "hospital ownership": "Government - Hospital District or Authority",
    "state": "TX",
    "latitude": "33.60700019400048",
    "_id": 193,
    "type": "Acute Care"
  },
  {
    "phone_number": "(214) 320-7000",
    "longitude": "-96.60007104699969",
    "address": "1011 N. Galloway Ave.",
    "emergency_services": "Yes",
    "city": "Mesquite",
    "name": "Dallas Regional Medical Center",
    "url": "dallas-regional-medical-center",
    "zipcode": "75149",
    "provider_number": "450688",
    "hospital ownership": "Proprietary",
    "state": "TX",
    "latitude": "32.778641914000445",
    "_id": 194,
    "type": "Acute Care"
  },
  {
    "phone_number": "(903) 877-7777",
    "longitude": "-95.20790183699967",
    "address": "11937 U.S. Highway 271",
    "emergency_services": "Yes",
    "city": "Tyler",
    "name": "University Of Texas Health Science Center At Tyler",
    "url": "university-of-texas-health-science-center-at-tyler",
    "zipcode": "75708",
    "provider_number": "450690",
    "hospital ownership": "Government - State",
    "state": "TX",
    "latitude": "32.424286708000466",
    "_id": 195,
    "type": "Acute Care"
  },
  {
    "phone_number": "(979) 578-5251",
    "longitude": "-96.28969005299967",
    "address": "303 Sandy Corner Road",
    "emergency_services": "Yes",
    "city": "El Campo",
    "name": "El Campo Memorial Hospital",
    "url": "el-campo-memorial-hospital",
    "zipcode": "77437",
    "provider_number": "450694",
    "hospital ownership": "Nonprofit - Other",
    "state": "TX",
    "latitude": "29.219498442000486",
    "_id": 196,
    "type": "Acute Care"
  },
  {
    "phone_number": "(210) 921-2000",
    "longitude": "-98.54647878799966",
    "address": "7400 Barlite Blvd.",
    "emergency_services": "Yes",
    "city": "San Antonio",
    "name": "Southwest General Hospital",
    "url": "southwest-general-hospital",
    "zipcode": "78224",
    "provider_number": "450697",
    "hospital ownership": "Nonprofit - Church",
    "state": "TX",
    "latitude": "29.35410762300046",
    "_id": 197,
    "type": "Acute Care"
  },
  {
    "phone_number": "(806) 385-6411",
    "longitude": "-102.3454165069997",
    "address": "1500 S. Sunset",
    "emergency_services": "Yes",
    "city": "Littlefield",
    "name": "Lamb Healthcare Center",
    "url": "lamb-healthcare-center",
    "zipcode": "79339",
    "provider_number": "450698",
    "hospital ownership": "Government - Local",
    "state": "TX",
    "latitude": "33.91241132200048",
    "_id": 198,
    "type": "Acute Care"
  },
  {
    "phone_number": "(903) 758-1818",
    "longitude": "-94.72880224799968",
    "address": "2901 N. Fourth St.",
    "emergency_services": "Yes",
    "city": "Longview",
    "name": "Longview Regional Medical Center",
    "url": "longview-regional-medical-center",
    "zipcode": "75605",
    "provider_number": "450702",
    "hospital ownership": "Proprietary",
    "state": "TX",
    "latitude": "32.53252516000049",
    "_id": 199,
    "type": "Acute Care"
  },
  {
    "phone_number": "(281) 333-5503",
    "longitude": "-95.0848286539997",
    "address": "18300 St. John Drive",
    "emergency_services": "Yes",
    "city": "Nassau Bay",
    "name": "Christus St John Hospital",
    "url": "christus-st-john-hospital",
    "zipcode": "77058",
    "provider_number": "450709",
    "hospital ownership": "Nonprofit - Church",
    "state": "TX",
    "latitude": "29.54885890300045",
    "_id": 200,
    "type": "Acute Care"
  },
  {
    "phone_number": "(956) 632-6000",
    "longitude": "-98.22161656499969",
    "address": "101 E. Ridge Road",
    "emergency_services": "Yes",
    "city": "Mcallen",
    "name": "Rio Grande Regional Hospital",
    "url": "rio-grande-regional-hospital",
    "zipcode": "78503",
    "provider_number": "450711",
    "hospital ownership": "Proprietary",
    "state": "TX",
    "latitude": "26.18562728100045",
    "_id": 201,
    "type": "Acute Care"
  },
  {
    "phone_number": "(512) 448-7107",
    "longitude": "-97.77426033599966",
    "address": "901 W. Ben White Blvd.",
    "emergency_services": "Yes",
    "city": "Austin",
    "name": "St David's South Austin Medical Center",
    "url": "st-david-s-south-austin-medical-center",
    "zipcode": "78704",
    "provider_number": "450713",
    "hospital ownership": "Proprietary",
    "state": "TX",
    "latitude": "30.22727330100048",
    "_id": 202,
    "type": "Acute Care"
  },
  {
    "phone_number": "(281) 897-3100",
    "longitude": "-95.58865042499968",
    "address": "10655 Steepletop Drive",
    "emergency_services": "Yes",
    "city": "Houston",
    "name": "Cypress Fairbanks Medical Center",
    "url": "cypress-fairbanks-medical-center",
    "zipcode": "77065",
    "provider_number": "450716",
    "hospital ownership": "Proprietary",
    "state": "TX",
    "latitude": "29.926338520000456",
    "_id": 203,
    "type": "Acute Care"
  },
  {
    "phone_number": "(512) 341-1000",
    "longitude": "-97.71340181999966",
    "address": "2400 Round Rock Ave.",
    "emergency_services": "Yes",
    "city": "Round Rock",
    "name": "Round Rock Medical Center",
    "url": "round-rock-medical-center",
    "zipcode": "78681",
    "provider_number": "450718",
    "hospital ownership": "Nonprofit - Other",
    "state": "TX",
    "latitude": "30.50899577500047",
    "_id": 204,
    "type": "Acute Care"
  },
  {
    "phone_number": "(214) 947-7777",
    "longitude": "-96.87646012399966",
    "address": "3500 W. Wheatland Road",
    "emergency_services": "Yes",
    "city": "Dallas",
    "name": "Methodist Charlton Medical Center",
    "url": "methodist-charlton-medical-center",
    "zipcode": "75237",
    "provider_number": "450723",
    "hospital ownership": "Nonprofit - Church",
    "state": "TX",
    "latitude": "32.647453157000484",
    "_id": 205,
    "type": "Acute Care"
  },
  {
    "phone_number": "(972) 492-1010",
    "longitude": "-96.88446791599966",
    "address": "4343 N. Josey Lane",
    "emergency_services": "Yes",
    "city": "Carrollton",
    "name": "Baylor Medical Center At Carrollton",
    "url": "baylor-medical-center-at-carrollton",
    "zipcode": "75010",
    "provider_number": "450730",
    "hospital ownership": "Proprietary",
    "state": "TX",
    "latitude": "33.028234909000446",
    "_id": 206,
    "type": "Acute Care"
  },
  {
    "phone_number": "(972) 412-2273",
    "longitude": "-96.50943765799968",
    "address": "6800 Scenic Drive",
    "emergency_services": "Yes",
    "city": "Rowlett",
    "name": "Lake Pointe Medical Center",
    "url": "lake-pointe-medical-center",
    "zipcode": "75088",
    "provider_number": "450742",
    "hospital ownership": "Proprietary",
    "state": "TX",
    "latitude": "32.918890218000456",
    "_id": 207,
    "type": "Acute Care"
  },
  {
    "phone_number": "(940) 898-7000",
    "longitude": "-97.16948186399969",
    "address": "3000 N. Interstate 35",
    "emergency_services": "Yes",
    "city": "Denton",
    "name": "Texas Health Presbyterian Hospital Denton",
    "url": "texas-health-presbyterian-hospital-denton",
    "zipcode": "76201",
    "provider_number": "450743",
    "hospital ownership": "Nonprofit - Church",
    "state": "TX",
    "latitude": "33.217893227000445",
    "_id": 208,
    "type": "Acute Care"
  },
  {
    "phone_number": "(940) 657-3535",
    "longitude": "-99.81160927499968",
    "address": "701 S.E. 5th St.",
    "emergency_services": "Yes",
    "city": "Knox City",
    "name": "Knox County Hospital",
    "url": "knox-county-hospital",
    "zipcode": "79529",
    "provider_number": "450746",
    "hospital ownership": "Government - Hospital District or Authority",
    "state": "TX",
    "latitude": "33.41407539700049",
    "_id": 209,
    "type": "Acute Care"
  },
  {
    "phone_number": "(903) 731-1000",
    "longitude": "-95.62748129199969",
    "address": "2900 S. Loop 256",
    "emergency_services": "Yes",
    "city": "Palestine",
    "name": "Palestine Regional Medical Center",
    "url": "palestine-regional-medical-center",
    "zipcode": "75801",
    "provider_number": "450747",
    "hospital ownership": "Proprietary",
    "state": "TX",
    "latitude": "31.73398439100049",
    "_id": 210,
    "type": "Acute Care"
  },
  {
    "phone_number": "(936) 594-3541",
    "longitude": "-95.37623144299965",
    "address": "317 Prospect Drive/P.O. Box 3169",
    "emergency_services": "Yes",
    "city": "Trinity",
    "name": "East Texas Medical Center Trinity",
    "url": "east-texas-medical-center-trinity",
    "zipcode": "75862",
    "provider_number": "450749",
    "hospital ownership": "Nonprofit - Church",
    "state": "TX",
    "latitude": "30.95178067800049",
    "_id": 211,
    "type": "Acute Care"
  },
  {
    "phone_number": "(713) 794-7100",
    "longitude": "-95.38992508699965",
    "address": "2002 Holcombe Blvd.",
    "emergency_services": "No",
    "city": "Houston",
    "name": "Houston Va Medical Center",
    "url": "houston-va-medical-center",
    "zipcode": "77030",
    "provider_number": "45074F",
    "hospital ownership": "Government Federal",
    "state": "TX",
    "latitude": "29.706022489000475",
    "_id": 212,
    "type": "Acute Care - Veterans Administration"
  },
  {
    "phone_number": "(254) 386-3151",
    "longitude": "-98.11337378999968",
    "address": "400 N. Brown",
    "emergency_services": "Yes",
    "city": "Hamilton",
    "name": "Hamilton General Hospital",
    "url": "hamilton-general-hospital",
    "zipcode": "76531",
    "provider_number": "450754",
    "hospital ownership": "Government - Hospital District or Authority",
    "state": "TX",
    "latitude": "31.703941124000437",
    "_id": 213,
    "type": "Acute Care"
  },
  {
    "phone_number": "(806) 894-4963",
    "longitude": "-102.36779383399966",
    "address": "1900 College Ave.",
    "emergency_services": "Yes",
    "city": "Levelland",
    "name": "Covenant Hospital Levelland",
    "url": "covenant-hospital-levelland",
    "zipcode": "79336",
    "provider_number": "450755",
    "hospital ownership": "Nonprofit - Church",
    "state": "TX",
    "latitude": "33.572750622000456",
    "_id": 214,
    "type": "Acute Care"
  },
  {
    "phone_number": "(214) 879-3758",
    "longitude": "-96.83628504399968",
    "address": "5151 Harry Hines Blvd.",
    "emergency_services": "No",
    "city": "Dallas",
    "name": "UT Southwestern University Hospital-Zale Lipshy",
    "url": "ut-southwestern-university-hospital-zale-lipshy",
    "zipcode": "75390",
    "provider_number": "450766",
    "hospital ownership": "Government - State",
    "state": "TX",
    "latitude": "32.81095249100048",
    "_id": 215,
    "type": "Acute Care"
  },
  {
    "phone_number": "(254) 697-6591",
    "longitude": "-96.9769022969997",
    "address": "806 N. Crockett",
    "emergency_services": "Yes",
    "city": "Cameron",
    "name": "Central Texas Hospital",
    "url": "central-texas-hospital",
    "zipcode": "76520",
    "provider_number": "450770",
    "hospital ownership": "Proprietary",
    "state": "TX",
    "latitude": "30.85675889500044",
    "_id": 216,
    "type": "Acute Care"
  },
  {
    "phone_number": "(972) 981-8000",
    "longitude": "-96.83633943499967",
    "address": "6200 W. Parker Road",
    "emergency_services": "No",
    "city": "Plano",
    "name": "Texas Health Presbyterian Hospital Plano",
    "url": "texas-health-presbyterian-hospital-plano",
    "zipcode": "75093",
    "provider_number": "450771",
    "hospital ownership": "Nonprofit - Church",
    "state": "TX",
    "latitude": "33.04512340500048",
    "_id": 217,
    "type": "Acute Care"
  },
  {
    "phone_number": "(281) 539-2900",
    "longitude": "-95.44462547999967",
    "address": "17080 Red Oak Drive",
    "emergency_services": "Yes",
    "city": "Houston",
    "name": "Tops Surgical Specialty Hospital",
    "url": "tops-surgical-specialty-hospital",
    "zipcode": "77090",
    "provider_number": "450774",
    "hospital ownership": "Physician",
    "state": "TX",
    "latitude": "30.018312139000443",
    "_id": 218,
    "type": "Acute Care"
  },
  {
    "phone_number": "(281) 359-7500",
    "longitude": "-95.18761827699967",
    "address": "22999 U.S. Highway 59",
    "emergency_services": "Yes",
    "city": "Kingwood",
    "name": "Kingwood Medical Center",
    "url": "kingwood-medical-center",
    "zipcode": "77325",
    "provider_number": "450775",
    "hospital ownership": "Proprietary",
    "state": "TX",
    "latitude": "30.055671165000433",
    "_id": 219,
    "type": "Acute Care"
  },
  {
    "phone_number": "(817) 433-5000",
    "longitude": "-97.41982814399967",
    "address": "6100 Harris Parkway",
    "emergency_services": "Yes",
    "city": "Fort Worth",
    "name": "Texas Health Harris Methodist Hospital Southwest F",
    "url": "texas-health-harris-methodist-hospital-southwest-f",
    "zipcode": "76132",
    "provider_number": "450779",
    "hospital ownership": "Nonprofit - Church",
    "state": "TX",
    "latitude": "32.65890521300048",
    "_id": 220,
    "type": "Acute Care"
  },
  {
    "phone_number": "(210) 575-5000",
    "longitude": "-98.59586985099969",
    "address": "9150 Huebner Road, Suite 100",
    "emergency_services": "Yes",
    "city": "San Antonio",
    "name": "Methodist Ambulatory Surgery Hospital Nw",
    "url": "methodist-ambulatory-surgery-hospital-nw",
    "zipcode": "78240",
    "provider_number": "450780",
    "hospital ownership": "Proprietary",
    "state": "TX",
    "latitude": "29.52768995000048",
    "_id": 221,
    "type": "Acute Care"
  },
  {
    "phone_number": "(361) 761-1501",
    "longitude": "-97.3441526639997",
    "address": "7101 S. Padre Island Drive",
    "emergency_services": "Yes",
    "city": "Corpus Christi",
    "name": "Corpus Christi Medical Center,The",
    "url": "corpus-christi-medical-center-the",
    "zipcode": "78412",
    "provider_number": "450788",
    "hospital ownership": "Proprietary",
    "state": "TX",
    "latitude": "27.694355421000466",
    "_id": 222,
    "type": "Acute Care"
  },
  {
    "phone_number": "(713) 697-2961",
    "longitude": "-95.34254077699967",
    "address": "2807 Little York Road",
    "emergency_services": "Yes",
    "city": "Houston",
    "name": "St Anthony's Hospital",
    "url": "st-anthony-s-hospital",
    "zipcode": "77093",
    "provider_number": "450795",
    "hospital ownership": "Proprietary",
    "state": "TX",
    "latitude": "29.87107752300045",
    "_id": 223,
    "type": "Acute Care"
  },
  {
    "phone_number": "(806) 359-7999",
    "longitude": "-101.93812557999968",
    "address": "3501 Soncy Road, Suite 118",
    "emergency_services": "Yes",
    "city": "Amarillo",
    "name": "Northwest Texas Surgery Center",
    "url": "northwest-texas-surgery-center",
    "zipcode": "79109",
    "provider_number": "450796",
    "hospital ownership": "Proprietary",
    "state": "TX",
    "latitude": "35.17352940000046",
    "_id": 224,
    "type": "Acute Care"
  },
  {
    "phone_number": "(713) 528-6800",
    "longitude": "-95.3843575409997",
    "address": "5445 La Branch St.",
    "emergency_services": "No",
    "city": "Houston",
    "name": "Houston Hospital For Specialized Surgery",
    "url": "houston-hospital-for-specialized-surgery",
    "zipcode": "77004",
    "provider_number": "450797",
    "hospital ownership": "Proprietary",
    "state": "TX",
    "latitude": "29.72438247700046",
    "_id": 225,
    "type": "Acute Care"
  },
  {
    "phone_number": "(903) 614-1000",
    "longitude": "-94.07552250399965",
    "address": "2600 St. Michael Drive",
    "emergency_services": "Yes",
    "city": "Texarkana",
    "name": "Christus St Michael Health System",
    "url": "christus-st-michael-health-system",
    "zipcode": "75504",
    "provider_number": "450801",
    "hospital ownership": "Nonprofit - Church",
    "state": "TX",
    "latitude": "33.46222460900049",
    "_id": 226,
    "type": "Acute Care"
  },
  {
    "phone_number": "(713) 691-1111",
    "longitude": "-95.40785030499967",
    "address": "510 W. Tidwell",
    "emergency_services": "Yes",
    "city": "Houston",
    "name": "Doctors Hospital Tidwell",
    "url": "doctors-hospital-tidwell",
    "zipcode": "77091",
    "provider_number": "450803",
    "hospital ownership": "Physician",
    "state": "TX",
    "latitude": "29.847248387000434",
    "_id": 227,
    "type": "Acute Care"
  },
  {
    "phone_number": "(713) 799-8600",
    "longitude": "-95.4095072939997",
    "address": "7401 S. Main St.",
    "emergency_services": "Yes",
    "city": "Houston",
    "name": "Texas Orthopedic Hospital",
    "url": "texas-orthopedic-hospital",
    "zipcode": "77030",
    "provider_number": "450804",
    "hospital ownership": "Nonprofit - Other",
    "state": "TX",
    "latitude": "29.700561632000472",
    "_id": 228,
    "type": "Acute Care"
  },
  {
    "phone_number": "(512) 346-1994",
    "longitude": "-97.75121054199968",
    "address": "6818 Austin Center Blvd., Suite 100",
    "emergency_services": "Yes",
    "city": "Austin",
    "name": "Northwest Hills Surgical Hospital",
    "url": "northwest-hills-surgical-hospital",
    "zipcode": "78731",
    "provider_number": "450808",
    "hospital ownership": "Proprietary",
    "state": "TX",
    "latitude": "30.350770501000454",
    "_id": 229,
    "type": "Acute Care"
  },
  {
    "phone_number": "(512) 901-1000",
    "longitude": "-97.70797782299968",
    "address": "12221 Mopac Expressway North",
    "emergency_services": "Yes",
    "city": "Austin",
    "name": "North Austin Medical Center",
    "url": "north-austin-medical-center",
    "zipcode": "78758",
    "provider_number": "450809",
    "hospital ownership": "Nonprofit - Other",
    "state": "TX",
    "latitude": "30.383593075000476",
    "_id": 230,
    "type": "Acute Care"
  },
  {
    "phone_number": "(281) 274-8000",
    "longitude": "-95.63091458599968",
    "address": "16655 Southwest Freeway",
    "emergency_services": "Yes",
    "city": "Sugar Land",
    "name": "Methodist Sugar Land Hospital",
    "url": "methodist-sugar-land-hospital",
    "zipcode": "77479",
    "provider_number": "450820",
    "hospital ownership": "Nonprofit - Church",
    "state": "TX",
    "latitude": "29.59109397700047",
    "_id": 231,
    "type": "Acute Care"
  },
  {
    "phone_number": "(972) 969-2000",
    "longitude": "-96.95863801199965",
    "address": "6800 N. Mac Arthur Blvd.",
    "emergency_services": "Yes",
    "city": "Irving",
    "name": "Las Colinas Medical Center",
    "url": "las-colinas-medical-center",
    "zipcode": "75039",
    "provider_number": "450822",
    "hospital ownership": "Nonprofit - Church",
    "state": "TX",
    "latitude": "32.90203014800045",
    "_id": 232,
    "type": "Acute Care"
  },
  {
    "phone_number": "(956) 618-4444",
    "longitude": "-98.19896117799965",
    "address": "2302 Cornerstone Blvd.",
    "emergency_services": "Yes",
    "city": "Edinburg",
    "name": "Cornerstone Regional Hospital",
    "url": "cornerstone-regional-hospital",
    "zipcode": "78539",
    "provider_number": "450825",
    "hospital ownership": "Proprietary",
    "state": "TX",
    "latitude": "26.263135043000432",
    "_id": 233,
    "type": "Acute Care"
  },
  {
    "phone_number": "(940) 692-5888",
    "longitude": "-98.5336093899997",
    "address": "5402 Kell West Blvd.",
    "emergency_services": "Yes",
    "city": "Wichita Falls",
    "name": "Kell West Regional Hospital",
    "url": "kell-west-regional-hospital",
    "zipcode": "76310",
    "provider_number": "450827",
    "hospital ownership": "Proprietary",
    "state": "TX",
    "latitude": "33.88428429200047",
    "_id": 234,
    "type": "Acute Care"
  },
  {
    "phone_number": "(361) 661-8016",
    "longitude": "-98.04479606099966",
    "address": "2500 E. Main St.",
    "emergency_services": "Yes",
    "city": "Alice",
    "name": "Christus Spohn Hospital Alice",
    "url": "christus-spohn-hospital-alice",
    "zipcode": "78332",
    "provider_number": "450828",
    "hospital ownership": "Nonprofit - Church",
    "state": "TX",
    "latitude": "27.764705795000452",
    "_id": 235,
    "type": "Acute Care"
  },
  {
    "phone_number": "(713) 378-3000",
    "longitude": "-95.18996892499968",
    "address": "4301 Vista Road",
    "emergency_services": "Yes",
    "city": "Pasadena",
    "name": "Surgery Specialty Hospitals Of America Se Houston",
    "url": "surgery-specialty-hospitals-of-america-se-houston",
    "zipcode": "77504",
    "provider_number": "450831",
    "hospital ownership": "Proprietary",
    "state": "TX",
    "latitude": "29.651420542000437",
    "_id": 236,
    "type": "Acute Care"
  },
  {
    "phone_number": "(281) 599-5700",
    "longitude": "-95.71884382999968",
    "address": "701 S. Fry Road",
    "emergency_services": "Yes",
    "city": "Katy",
    "name": "Christus St Catherine Hospital",
    "url": "christus-st-catherine-hospital",
    "zipcode": "77450",
    "provider_number": "450832",
    "hospital ownership": "Nonprofit - Church",
    "state": "TX",
    "latitude": "29.777793056000462",
    "_id": 237,
    "type": "Acute Care"
  },
  {
    "phone_number": "(972) 875-0900",
    "longitude": "-96.63954909799969",
    "address": "2201 W. Lampasas St.",
    "emergency_services": "Yes",
    "city": "Ennis",
    "name": "Ennis Regional Medical Center",
    "url": "ennis-regional-medical-center",
    "zipcode": "75119",
    "provider_number": "450833",
    "hospital ownership": "Proprietary",
    "state": "TX",
    "latitude": "32.31334626500046",
    "_id": 238,
    "type": "Acute Care"
  },
  {
    "phone_number": "(979) 731-3100",
    "longitude": "-96.29656846599966",
    "address": "3131 University Drive East",
    "emergency_services": "Yes",
    "city": "Bryan",
    "name": "Physicians Centre,The",
    "url": "physicians-centre-the",
    "zipcode": "77802",
    "provider_number": "450834",
    "hospital ownership": "Proprietary",
    "state": "TX",
    "latitude": "30.649492806000467",
    "_id": 239,
    "type": "Acute Care"
  },
  {
    "phone_number": "(972) 747-6197",
    "longitude": "-96.6713061749997",
    "address": "1105 Central Expressway North",
    "emergency_services": "Yes",
    "city": "Allen",
    "name": "Texas Health Presbyterian Hospital Allen",
    "url": "texas-health-presbyterian-hospital-allen",
    "zipcode": "75013",
    "provider_number": "450840",
    "hospital ownership": "Government - Federal",
    "state": "TX",
    "latitude": "33.11581725900044",
    "_id": 240,
    "type": "Acute Care"
  },
  {
    "phone_number": "(281) 477-1000",
    "longitude": "-95.55016402199965",
    "address": "18220 Tomball Parkway",
    "emergency_services": "Yes",
    "city": "Houston",
    "name": "Methodist Willowbrook Hospital",
    "url": "methodist-willowbrook-hospital",
    "zipcode": "77070",
    "provider_number": "450844",
    "hospital ownership": "Nonprofit - Church",
    "state": "TX",
    "latitude": "29.963626775000478",
    "_id": 241,
    "type": "Acute Care"
  },
  {
    "phone_number": "(915) 544-3636",
    "longitude": "-106.4770518739997",
    "address": "1755 Curie, Suite A",
    "emergency_services": "Yes",
    "city": "El Paso",
    "name": "El Paso Specialty Hospital",
    "url": "el-paso-specialty-hospital",
    "zipcode": "79902",
    "provider_number": "450845",
    "hospital ownership": "Proprietary",
    "state": "TX",
    "latitude": "31.779586528000436",
    "_id": 242,
    "type": "Acute Care"
  },
  {
    "phone_number": "(281) 392-1111",
    "longitude": "-95.78579960799965",
    "address": "23900 Katy Freeway",
    "emergency_services": "Yes",
    "city": "Katy",
    "name": "Memorial Hermann Katy Hospital",
    "url": "memorial-hermann-katy-hospital",
    "zipcode": "77494",
    "provider_number": "450847",
    "hospital ownership": "Nonprofit - Church",
    "state": "TX",
    "latitude": "29.785938752000447",
    "_id": 243,
    "type": "Acute Care"
  },
  {
    "phone_number": "(281) 499-4800",
    "longitude": "-95.68809768599965",
    "address": "17500 W. Grand Parkway South",
    "emergency_services": "Yes",
    "city": "Sugar Land",
    "name": "Memorial Hermann Sugar Land Hospital",
    "url": "memorial-hermann-sugar-land-hospital",
    "zipcode": "77479",
    "provider_number": "450848",
    "hospital ownership": "Nonprofit - Church",
    "state": "TX",
    "latitude": "29.56364695600047",
    "_id": 244,
    "type": "Acute Care"
  },
  {
    "phone_number": "(214) 820-0670",
    "longitude": "-96.78025528599966",
    "address": "621 N. Hall St.",
    "emergency_services": "No",
    "city": "Dallas",
    "name": "Baylor Heart And Vascular Hospital",
    "url": "baylor-heart-and-vascular-hospital",
    "zipcode": "75226",
    "provider_number": "450851",
    "hospital ownership": "Proprietary",
    "state": "TX",
    "latitude": "32.787893846000486",
    "_id": 245,
    "type": "Acute Care"
  },
  {
    "phone_number": "(214) 618-2000",
    "longitude": "-96.83757121999969",
    "address": "5601 Warren Parkway",
    "emergency_services": "Yes",
    "city": "Frisco",
    "name": "Baylor Medical Center At Frisco",
    "url": "baylor-medical-center-at-frisco",
    "zipcode": "75034",
    "provider_number": "450853",
    "hospital ownership": "Proprietary",
    "state": "TX",
    "latitude": "33.10668309200048",
    "_id": 246,
    "type": "Acute Care"
  },
  {
    "phone_number": "(956) 365-1000",
    "longitude": "-97.67591407299966",
    "address": "5501 S. Expressway 77",
    "emergency_services": "Yes",
    "city": "Harlingen",
    "name": "Harlingen Medical Center",
    "url": "harlingen-medical-center",
    "zipcode": "78550",
    "provider_number": "450855",
    "hospital ownership": "Proprietary",
    "state": "TX",
    "latitude": "26.156573715000434",
    "_id": 247,
    "type": "Acute Care"
  },
  {
    "phone_number": "(210) 404-0800",
    "longitude": "-98.47844867199967",
    "address": "18600 N. Hardy Oak Blvd.",
    "emergency_services": "Yes",
    "city": "San Antonio",
    "name": "South Texas Spine And Surgical Hospital",
    "url": "south-texas-spine-and-surgical-hospital",
    "zipcode": "78258",
    "provider_number": "450856",
    "hospital ownership": "Proprietary",
    "state": "TX",
    "latitude": "29.613162866000437",
    "_id": 248,
    "type": "Acute Care"
  },
  {
    "phone_number": "(281) 243-1000",
    "longitude": "-95.63669044999966",
    "address": "1211 Highway 6, Suite 70",
    "emergency_services": "No",
    "city": "Sugar Land",
    "name": "Sugar Land Surgical Hospital Llp",
    "url": "sugar-land-surgical-hospital-llp",
    "zipcode": "77478",
    "provider_number": "450860",
    "hospital ownership": "Proprietary",
    "state": "TX",
    "latitude": "29.604797481000446",
    "_id": 249,
    "type": "Acute Care"
  },
  {
    "phone_number": "(936) 266-4050",
    "longitude": "-95.46067405199966",
    "address": "17200 St. Luke's Way",
    "emergency_services": "Yes",
    "city": "The Woodlands",
    "name": "St Luke's The Woodlands Hospital",
    "url": "st-luke-s-the-woodlands-hospital",
    "zipcode": "77384",
    "provider_number": "450862",
    "hospital ownership": "Nonprofit - Church",
    "state": "TX",
    "latitude": "30.20540459600045",
    "_id": 250,
    "type": "Acute Care"
  },
  {
    "phone_number": "(903) 525-3300",
    "longitude": "-95.29942826999968",
    "address": "1814 Roseland Blvd.",
    "emergency_services": "Yes",
    "city": "Tyler",
    "name": "Texas Spine And Joint Hospital",
    "url": "texas-spine-and-joint-hospital",
    "zipcode": "75701",
    "provider_number": "450864",
    "hospital ownership": "Proprietary",
    "state": "TX",
    "latitude": "32.329361020000476",
    "_id": 251,
    "type": "Acute Care"
  },
  {
    "phone_number": "(512) 324-9000",
    "longitude": "-97.88967630999969",
    "address": "7900 Fm 1826",
    "emergency_services": "Yes",
    "city": "Austin",
    "name": "Seton Southwest Hospital",
    "url": "seton-southwest-hospital",
    "zipcode": "78737",
    "provider_number": "450865",
    "hospital ownership": "Nonprofit - Church",
    "state": "TX",
    "latitude": "30.226756898000474",
    "_id": 252,
    "type": "Acute Care"
  },
  {
    "phone_number": "(512) 324-6000",
    "longitude": "-97.74484907799967",
    "address": "11113 Research Blvd.",
    "emergency_services": "Yes",
    "city": "Austin",
    "name": "Seton  Northwest Hospital",
    "url": "seton-northwest-hospital",
    "zipcode": "78759",
    "provider_number": "450867",
    "hospital ownership": "Nonprofit - Church",
    "state": "TX",
    "latitude": "30.406256536000456",
    "_id": 253,
    "type": "Acute Care"
  },
  {
    "phone_number": "(956) 362-8677",
    "longitude": "-98.2038909259997",
    "address": "5501 S. Mc Coll",
    "emergency_services": "Yes",
    "city": "Edinburg",
    "name": "Doctors Hospital At Renaissance",
    "url": "doctors-hospital-at-renaissance",
    "zipcode": "78539",
    "provider_number": "450869",
    "hospital ownership": "Proprietary",
    "state": "TX",
    "latitude": "26.253825290000464",
    "_id": 254,
    "type": "Acute Care"
  },
  {
    "phone_number": "(254) 778-4811",
    "longitude": "-97.34924809999967",
    "address": "1901 Veterans Memorial Drive",
    "emergency_services": "No",
    "city": "Temple",
    "name": "Temple Va Medical Center - Va Central Texas",
    "url": "temple-va-medical-center-va-central-texas",
    "zipcode": "76504",
    "provider_number": "45086F",
    "hospital ownership": "Government Federal",
    "state": "TX",
    "latitude": "31.07791054200044",
    "_id": 255,
    "type": "Acute Care - Veterans Adminstration"
  },
  {
    "phone_number": "(512) 347-9888",
    "longitude": "-97.79583790899966",
    "address": "3003 Bee Caves Road",
    "emergency_services": "Yes",
    "city": "Austin",
    "name": "Arise Austin Medical Center",
    "url": "arise-austin-medical-center",
    "zipcode": "78746",
    "provider_number": "450871",
    "hospital ownership": "Physician",
    "state": "TX",
    "latitude": "30.271592722000435",
    "_id": 256,
    "type": "Acute Care"
  },
  {
    "phone_number": "(817) 472-3400",
    "longitude": "-97.11681723199968",
    "address": "801 W. Interstate 20",
    "emergency_services": "Yes",
    "city": "Arlington",
    "name": "Usmd Hospital At Arlington L P",
    "url": "usmd-hospital-at-arlington-l-p",
    "zipcode": "76017",
    "provider_number": "450872",
    "hospital ownership": "Physician",
    "state": "TX",
    "latitude": "32.67904779000048",
    "_id": 257,
    "type": "Acute Care"
  },
  {
    "phone_number": "(972) 868-4000",
    "longitude": "-96.94562727399966",
    "address": "400 W. Interstate 635, Suite 101",
    "emergency_services": "Yes",
    "city": "Irving",
    "name": "Baylor Surgical Hospital At Las Colinas",
    "url": "baylor-surgical-hospital-at-las-colinas",
    "zipcode": "75063",
    "provider_number": "450874",
    "hospital ownership": "Proprietary",
    "state": "TX",
    "latitude": "32.91219331800045",
    "_id": 258,
    "type": "Acute Care"
  },
  {
    "phone_number": "(806) 354-6100",
    "longitude": "-101.91313453699968",
    "address": "6819 Plum Creek",
    "emergency_services": "Yes",
    "city": "Amarillo",
    "name": "Quail Creek Surgical Hospital",
    "url": "quail-creek-surgical-hospital",
    "zipcode": "79124",
    "provider_number": "450875",
    "hospital ownership": "Proprietary",
    "state": "TX",
    "latitude": "35.20998838300045",
    "_id": 259,
    "type": "Acute Care"
  },
  {
    "phone_number": "(806) 687-7777",
    "longitude": "-101.91345596499968",
    "address": "4810 N. Loop 289",
    "emergency_services": "Yes",
    "city": "Lubbock",
    "name": "Lubbock Heart Hospital Lp",
    "url": "lubbock-heart-hospital-lp",
    "zipcode": "79416",
    "provider_number": "450876",
    "hospital ownership": "Government - Local",
    "state": "TX",
    "latitude": "33.60307460400048",
    "_id": 260,
    "type": "Acute Care"
  },
  {
    "phone_number": "(915) 598-4240",
    "longitude": "-106.30155790899971",
    "address": "1416 George Dieter",
    "emergency_services": "Yes",
    "city": "El Paso",
    "name": "Foundation Surgical Hospital Of El Paso",
    "url": "foundation-surgical-hospital-of-el-paso",
    "zipcode": "79936",
    "provider_number": "450877",
    "hospital ownership": "Physician",
    "state": "TX",
    "latitude": "31.73446052300045",
    "_id": 261,
    "type": "Acute Care"
  },
  {
    "phone_number": "(817) 334-5050",
    "longitude": "-97.34741874699967",
    "address": "750 12th Ave.",
    "emergency_services": "Yes",
    "city": "Fort Worth",
    "name": "Baylor Surgical Hospital At Fort Worth",
    "url": "baylor-surgical-hospital-at-fort-worth",
    "zipcode": "76104",
    "provider_number": "450880",
    "hospital ownership": "Nonprofit - Church",
    "state": "TX",
    "latitude": "32.73681623000044",
    "_id": 262,
    "type": "Acute Care"
  },
  {
    "phone_number": "(817) 837-4600",
    "longitude": "-97.17480994399966",
    "address": "2850 E. State Highway 114",
    "emergency_services": "Yes",
    "city": "Trophy Club",
    "name": "Baylor Medical Center At Trophy Club",
    "url": "baylor-medical-center-at-trophy-club",
    "zipcode": "76262",
    "provider_number": "450883",
    "hospital ownership": "Proprietary",
    "state": "TX",
    "latitude": "32.987939182000446",
    "_id": 263,
    "type": "Acute Care"
  },
  {
    "phone_number": "(903) 841-7100",
    "longitude": "-94.9425944949997",
    "address": "712 N. Wood",
    "emergency_services": "Yes",
    "city": "Gilmer",
    "name": "East Texas Medical Center - Gilmer",
    "url": "east-texas-medical-center-gilmer",
    "zipcode": "75644",
    "provider_number": "450884",
    "hospital ownership": "Nonprofit - Church",
    "state": "TX",
    "latitude": "32.735286070000484",
    "_id": 264,
    "type": "Acute Care"
  },
  {
    "phone_number": "(972) 963-3333",
    "longitude": "-96.77095055099966",
    "address": "12505 Lebanon Road",
    "emergency_services": "Yes",
    "city": "Frisco",
    "name": "Centennial Medical Center",
    "url": "centennial-medical-center",
    "zipcode": "75035",
    "provider_number": "450885",
    "hospital ownership": "Proprietary",
    "state": "TX",
    "latitude": "33.115852791000464",
    "_id": 265,
    "type": "Acute Care"
  },
  {
    "phone_number": "(817) 748-8700",
    "longitude": "-97.12898097899966",
    "address": "1545 E. Southlake Blvd.",
    "emergency_services": "Yes",
    "city": "Southlake",
    "name": "Texas Health Harris Methodist Hospital Southlake",
    "url": "texas-health-harris-methodist-hospital-southlake",
    "zipcode": "76092",
    "provider_number": "450888",
    "hospital ownership": "Government - State",
    "state": "TX",
    "latitude": "32.94094274000048",
    "_id": 266,
    "type": "Acute Care"
  },
  {
    "phone_number": "(214) 647-5300",
    "longitude": "-96.76128932299969",
    "address": "7115 Greenville Ave., Suite 100",
    "emergency_services": "Yes",
    "city": "Dallas",
    "name": "Texas Institute For Surgery At Presbyterian Hospit",
    "url": "texas-institute-for-surgery-at-presbyterian-hospit",
    "zipcode": "75231",
    "provider_number": "450889",
    "hospital ownership": "Proprietary",
    "state": "TX",
    "latitude": "32.877354160000436",
    "_id": 267,
    "type": "Acute Care"
  },
  {
    "phone_number": "(469) 814-2000",
    "longitude": "-96.7909611499997",
    "address": "4700 Alliance Blvd.",
    "emergency_services": "Yes",
    "city": "Plano",
    "name": "Baylor Regional Medical Center At Plano",
    "url": "baylor-regional-medical-center-at-plano",
    "zipcode": "75093",
    "provider_number": "450890",
    "hospital ownership": "Nonprofit - Other",
    "state": "TX",
    "latitude": "33.01433349300049",
    "_id": 268,
    "type": "Acute Care"
  },
  {
    "phone_number": "(972) 403-2700",
    "longitude": "-96.8316112709997",
    "address": "6020 W. Parker Road",
    "emergency_services": "Yes",
    "city": "Plano",
    "name": "Texas Health Center For Diagnostics & Surgery Plan",
    "url": "texas-health-center-for-diagnostics-surgery-plan",
    "zipcode": "75093",
    "provider_number": "450891",
    "hospital ownership": "Proprietary",
    "state": "TX",
    "latitude": "33.04508313400049",
    "_id": 269,
    "type": "Acute Care"
  },
  {
    "phone_number": "(940) 220-0600",
    "longitude": "-97.0881875449997",
    "address": "2801 S. Mayhill Road",
    "emergency_services": "Yes",
    "city": "Denton",
    "name": "The Heart Hospital Baylor Denton",
    "url": "the-heart-hospital-baylor-denton",
    "zipcode": "76208",
    "provider_number": "450893",
    "hospital ownership": "Nonprofit - Other",
    "state": "TX",
    "latitude": "33.17643770900048",
    "_id": 270,
    "type": "Acute Care"
  },
  {
    "phone_number": "(214) 231-2273",
    "longitude": "-96.86900071199966",
    "address": "9032 Harry Hines Blvd.",
    "emergency_services": "Yes",
    "city": "Dallas",
    "name": "Pine Creek Medical Center Llp",
    "url": "pine-creek-medical-center-llp",
    "zipcode": "75235",
    "provider_number": "450894",
    "hospital ownership": "Physician",
    "state": "TX",
    "latitude": "32.84036268000045",
    "_id": 271,
    "type": "Acute Care"
  },
  {
    "phone_number": "(210) 617-5300",
    "longitude": "-98.5808280979997",
    "address": "7400 Merton Minter Blvd.",
    "emergency_services": "No",
    "city": "San Antonio",
    "name": "San Antonio Va Medical Center - Va South Texas",
    "url": "san-antonio-va-medical-center-va-south-texas",
    "zipcode": "78229",
    "provider_number": "45090F",
    "hospital ownership": "Government Federal",
    "state": "TX",
    "latitude": "29.508417301000463",
    "_id": 272,
    "type": "Acute Care - Veterans Administration"
  },
  {
    "phone_number": "(325) 844-2561",
    "longitude": "-101.46171618399967",
    "address": "805 N. Main",
    "emergency_services": "Yes",
    "city": "Big Lake",
    "name": "Reagan Memorial Hospital",
    "url": "reagan-memorial-hospital",
    "zipcode": "76932",
    "provider_number": "451301",
    "hospital ownership": "Government - Hospital District or Authority",
    "state": "TX",
    "latitude": "31.197585137000488",
    "_id": 273,
    "type": "Critical Access"
  },
  {
    "phone_number": "(903) 756-5561",
    "longitude": "-94.36456402999966",
    "address": "404 N. Kaufman St.",
    "emergency_services": "Yes",
    "city": "Linden",
    "name": "Good Shephard Medical Center-Linden",
    "url": "good-shephard-medical-center-linden",
    "zipcode": "75563",
    "provider_number": "451302",
    "hospital ownership": "Nonprofit - Church",
    "state": "TX",
    "latitude": "33.01370299600046",
    "_id": 274,
    "type": "Critical Access"
  },
  {
    "phone_number": "(254) 729-3281",
    "longitude": "-96.52981087999967",
    "address": "701 Mc Clintic Drive",
    "emergency_services": "Yes",
    "city": "Groesbeck",
    "name": "Limestone Medical Center",
    "url": "limestone-medical-center",
    "zipcode": "76642",
    "provider_number": "451303",
    "hospital ownership": "Government - Hospital District or Authority",
    "state": "TX",
    "latitude": "31.53165894300048",
    "_id": 275,
    "type": "Critical Access"
  },
  {
    "phone_number": "(979) 567-3245",
    "longitude": "-96.71628700799965",
    "address": "1101 Woodson Drive",
    "emergency_services": "Yes",
    "city": "Caldwell",
    "name": "Burleson St Joseph Health Center",
    "url": "burleson-st-joseph-health-center",
    "zipcode": "77836",
    "provider_number": "451305",
    "hospital ownership": "Nonprofit - Church",
    "state": "TX",
    "latitude": "30.521254807000446",
    "_id": 276,
    "type": "Critical Access"
  },
  {
    "phone_number": "(806) 592-2121",
    "longitude": "-102.83636580599966",
    "address": "412 Mustang Ave.",
    "emergency_services": "Yes",
    "city": "Denver City",
    "name": "Yoakum County Hospital",
    "url": "yoakum-county-hospital",
    "zipcode": "79323",
    "provider_number": "451308",
    "hospital ownership": "Nonprofit - Other",
    "state": "TX",
    "latitude": "32.96808180800048",
    "_id": 277,
    "type": "Critical Access"
  },
  {
    "phone_number": "(432) 652-8626",
    "longitude": "-102.19083641899971",
    "address": "2500 Highway 305 South",
    "emergency_services": "Yes",
    "city": "Mccamey",
    "name": "Mccamey Hospital",
    "url": "mccamey-hospital",
    "zipcode": "79752",
    "provider_number": "451309",
    "hospital ownership": "Government - Hospital District or Authority",
    "state": "TX",
    "latitude": "31.084903901000473",
    "_id": 278,
    "type": "Critical Access"
  },
  {
    "phone_number": "(325) 365-2531",
    "longitude": "-99.96244035099966",
    "address": "608 Ave. B",
    "emergency_services": "Yes",
    "city": "Ballinger",
    "name": "Ballinger Memorial Hospital",
    "url": "ballinger-memorial-hospital",
    "zipcode": "76821",
    "provider_number": "451310",
    "hospital ownership": "Government - Hospital District or Authority",
    "state": "TX",
    "latitude": "31.74964799200046",
    "_id": 279,
    "type": "Critical Access"
  },
  {
    "phone_number": "(979) 548-3311",
    "longitude": "-95.6907394219997",
    "address": "305 N. Mc Kinney",
    "emergency_services": "Yes",
    "city": "Sweeny",
    "name": "Sweeny Community Hospital",
    "url": "sweeny-community-hospital",
    "zipcode": "77480",
    "provider_number": "451311",
    "hospital ownership": "Government - Hospital District or Authority",
    "state": "TX",
    "latitude": "29.04788919100048",
    "_id": 280,
    "type": "Critical Access"
  },
  {
    "phone_number": "(325) 735-2256",
    "longitude": "-100.43528829699966",
    "address": "774 State Highway 70 North",
    "emergency_services": "Yes",
    "city": "Rotan",
    "name": "Fisher County Hospital District",
    "url": "fisher-county-hospital-district",
    "zipcode": "79546",
    "provider_number": "451313",
    "hospital ownership": "Government - Hospital District or Authority",
    "state": "TX",
    "latitude": "32.83423622100048",
    "_id": 281,
    "type": "Critical Access"
  },
  {
    "phone_number": "(325) 754-4553",
    "longitude": "-99.9655557809997",
    "address": "7821 E. Highway 153",
    "emergency_services": "Yes",
    "city": "Winters",
    "name": "North Runnels Hospital",
    "url": "north-runnels-hospital",
    "zipcode": "79567",
    "provider_number": "451315",
    "hospital ownership": "Government - Hospital District or Authority",
    "state": "TX",
    "latitude": "31.963971510000476",
    "_id": 282,
    "type": "Critical Access"
  },
  {
    "phone_number": "(936) 348-2631",
    "longitude": "-95.91001707999965",
    "address": "100 W. Cross St.",
    "emergency_services": "Yes",
    "city": "Madisonville",
    "name": "Madison St Joseph Health Center",
    "url": "madison-st-joseph-health-center",
    "zipcode": "77864",
    "provider_number": "451316",
    "hospital ownership": "Nonprofit - Church",
    "state": "TX",
    "latitude": "30.941998407000483",
    "_id": 283,
    "type": "Critical Access"
  },
  {
    "phone_number": "(903) 541-4500",
    "longitude": "-95.2510389149997",
    "address": "2026 S. Jackson St.",
    "emergency_services": "Yes",
    "city": "Jacksonville",
    "name": "Mother Frances Hospital Jacksonville",
    "url": "mother-frances-hospital-jacksonville",
    "zipcode": "75766",
    "provider_number": "451319",
    "hospital ownership": "Nonprofit - Church",
    "state": "TX",
    "latitude": "31.939444942000478",
    "_id": 284,
    "type": "Critical Access"
  },
  {
    "phone_number": "(409) 267-3143",
    "longitude": "-94.68514263399965",
    "address": "200 Hospital Drive",
    "emergency_services": "Yes",
    "city": "Anahuac",
    "name": "Bayside Community Hospital",
    "url": "bayside-community-hospital",
    "zipcode": "77514",
    "provider_number": "451320",
    "hospital ownership": "Government - Local",
    "state": "TX",
    "latitude": "29.752112800000475",
    "_id": 285,
    "type": "Critical Access"
  },
  {
    "phone_number": "(903) 408-1881",
    "longitude": "-95.89574650399965",
    "address": "2900 Sterling Hart Drive",
    "emergency_services": "Yes",
    "city": "Commerce",
    "name": "Hunt Regional Community Hospital",
    "url": "hunt-regional-community-hospital",
    "zipcode": "75428",
    "provider_number": "451321",
    "hospital ownership": "Government - Hospital District or Authority",
    "state": "TX",
    "latitude": "33.23096437200047",
    "_id": 286,
    "type": "Critical Access"
  },
  {
    "phone_number": "(936) 825-6585",
    "longitude": "-96.07908853199967",
    "address": "210 Judson St.",
    "emergency_services": "Yes",
    "city": "Navasota",
    "name": "Grimes St Joseph Health Center",
    "url": "grimes-st-joseph-health-center",
    "zipcode": "77868",
    "provider_number": "451322",
    "hospital ownership": "Nonprofit - Church",
    "state": "TX",
    "latitude": "30.395151846000488",
    "_id": 287,
    "type": "Critical Access"
  },
  {
    "phone_number": "(512) 556-3682",
    "longitude": "-98.1856444019997",
    "address": "608 N. Key Ave.",
    "emergency_services": "Yes",
    "city": "Lampasas",
    "name": "Rollins Brook Community Hospital",
    "url": "rollins-brook-community-hospital",
    "zipcode": "76550",
    "provider_number": "451323",
    "hospital ownership": "Nonprofit - Church",
    "state": "TX",
    "latitude": "31.072403706000443",
    "_id": 288,
    "type": "Critical Access"
  },
  {
    "phone_number": "(940) 852-5131",
    "longitude": "-99.51584552699967",
    "address": "303 Ave. I",
    "emergency_services": "Yes",
    "city": "Chillicothe",
    "name": "Chillicothe Hospital District",
    "url": "chillicothe-hospital-district",
    "zipcode": "79225",
    "provider_number": "451326",
    "hospital ownership": "Government - Hospital District or Authority",
    "state": "TX",
    "latitude": "34.25539024300048",
    "_id": 289,
    "type": "Critical Access"
  },
  {
    "phone_number": "(830) 426-7700",
    "longitude": "-99.1334607499997",
    "address": "3100 Ave. E",
    "emergency_services": "Yes",
    "city": "Hondo",
    "name": "Medina Regional Hospital",
    "url": "medina-regional-hospital",
    "zipcode": "78861",
    "provider_number": "451330",
    "hospital ownership": "Nonprofit - Other",
    "state": "TX",
    "latitude": "29.33557236100046",
    "_id": 290,
    "type": "Critical Access"
  },
  {
    "phone_number": "(806) 244-4571",
    "longitude": "-102.5218438069997",
    "address": "1411 Denver Ave.",
    "emergency_services": "Yes",
    "city": "Dalhart",
    "name": "Coon Memorial Hospital",
    "url": "coon-memorial-hospital",
    "zipcode": "79022",
    "provider_number": "451331",
    "hospital ownership": "Government - Hospital District or Authority",
    "state": "TX",
    "latitude": "36.05210894400045",
    "_id": 291,
    "type": "Critical Access"
  },
  {
    "phone_number": "(432) 756-3345",
    "longitude": "-101.84900703999966",
    "address": "600 E. Interstate 20/P.O. Box 640",
    "emergency_services": "Yes",
    "city": "Stanton",
    "name": "Martin County Hospital District",
    "url": "martin-county-hospital-district",
    "zipcode": "79782",
    "provider_number": "451333",
    "hospital ownership": "Government - Hospital District or Authority",
    "state": "TX",
    "latitude": "32.10655286600047",
    "_id": 292,
    "type": "Critical Access"
  },
  {
    "phone_number": "(806) 826-5581",
    "longitude": "-100.27087724799969",
    "address": "901 S. Sweetwater",
    "emergency_services": "Yes",
    "city": "Wheeler",
    "name": "Parkview Hospital",
    "url": "parkview-hospital",
    "zipcode": "79096",
    "provider_number": "451334",
    "hospital ownership": "Government - Hospital District or Authority",
    "state": "TX",
    "latitude": "35.439240329000484",
    "_id": 293,
    "type": "Critical Access"
  },
  {
    "phone_number": "(806) 652-3373",
    "longitude": "-101.44163500499968",
    "address": "320 N. Main",
    "emergency_services": "Yes",
    "city": "Lockney",
    "name": "W J Mangold Memorial Hospital",
    "url": "w-j-mangold-memorial-hospital",
    "zipcode": "79241",
    "provider_number": "451337",
    "hospital ownership": "Government - Hospital District or Authority",
    "state": "TX",
    "latitude": "34.126857552000445",
    "_id": 294,
    "type": "Critical Access"
  },
  {
    "phone_number": "(940) 864-2621",
    "longitude": "-99.74416060299967",
    "address": "1 N. Ave. North/P.O. Box 1117",
    "emergency_services": "Yes",
    "city": "Haskell",
    "name": "Haskell Memorial Hospital",
    "url": "haskell-memorial-hospital",
    "zipcode": "79521",
    "provider_number": "451341",
    "hospital ownership": "Government - Hospital District or Authority",
    "state": "TX",
    "latitude": "33.15685985800047",
    "_id": 295,
    "type": "Critical Access"
  },
  {
    "phone_number": "(325) 728-3431",
    "longitude": "-100.92845625999968",
    "address": "997 W. Interstate 20",
    "emergency_services": "Yes",
    "city": "Colorado City",
    "name": "Mitchell County Hospital District",
    "url": "mitchell-county-hospital-district",
    "zipcode": "79512",
    "provider_number": "451342",
    "hospital ownership": "Government - Hospital District or Authority",
    "state": "TX",
    "latitude": "32.392156688000455",
    "_id": 296,
    "type": "Critical Access"
  },
  {
    "phone_number": "(940) 495-3981",
    "longitude": "-98.92399275299965",
    "address": "1207 S. Bailey St.",
    "emergency_services": "Yes",
    "city": "Electra",
    "name": "Electra Memorial Hospital",
    "url": "electra-memorial-hospital",
    "zipcode": "76360",
    "provider_number": "451343",
    "hospital ownership": "Government - Hospital District or Authority",
    "state": "TX",
    "latitude": "34.01910602500044",
    "_id": 297,
    "type": "Critical Access"
  },
  {
    "phone_number": "(806) 659-2535",
    "longitude": "-101.2001025669997",
    "address": "707 Roland St.",
    "emergency_services": "Yes",
    "city": "Spearman",
    "name": "Hansford County Hospital",
    "url": "hansford-county-hospital",
    "zipcode": "79081",
    "provider_number": "451344",
    "hospital ownership": "Government - Hospital District or Authority",
    "state": "TX",
    "latitude": "36.19071202900045",
    "_id": 298,
    "type": "Critical Access"
  },
  {
    "phone_number": "(361) 293-2321",
    "longitude": "-97.13082036699967",
    "address": "1200 Carl Ramert Drive",
    "emergency_services": "Yes",
    "city": "Yoakum",
    "name": "Yoakum Community Hospital",
    "url": "yoakum-community-hospital",
    "zipcode": "77995",
    "provider_number": "451346",
    "hospital ownership": "Government - Hospital District or Authority",
    "state": "TX",
    "latitude": "29.30713157100047",
    "_id": 299,
    "type": "Critical Access"
  },
  {
    "phone_number": "(325) 625-2135",
    "longitude": "-99.42525004399965",
    "address": "310 S. Pecos St.",
    "emergency_services": "Yes",
    "city": "Coleman",
    "name": "Coleman County Medical Center Company",
    "url": "coleman-county-medical-center-company",
    "zipcode": "76834",
    "provider_number": "451347",
    "hospital ownership": "Government - Hospital District or Authority",
    "state": "TX",
    "latitude": "31.828863727000453",
    "_id": 300,
    "type": "Critical Access"
  },
  {
    "phone_number": "(806) 995-3581",
    "longitude": "-101.75584968399966",
    "address": "539 S.E. 2nd St.",
    "emergency_services": "Yes",
    "city": "Tulia",
    "name": "Swisher Memorial Hospital",
    "url": "swisher-memorial-hospital",
    "zipcode": "79088",
    "provider_number": "451349",
    "hospital ownership": "Government - Hospital District or Authority",
    "state": "TX",
    "latitude": "34.535628218000454",
    "_id": 301,
    "type": "Critical Access"
  },
  {
    "phone_number": "(806) 647-2191",
    "longitude": "-102.31519259099969",
    "address": "310 W. Halsell St.",
    "emergency_services": "Yes",
    "city": "Dimmitt",
    "name": "Plains Memorial Hospital",
    "url": "plains-memorial-hospital",
    "zipcode": "79027",
    "provider_number": "451350",
    "hospital ownership": "Government - Hospital District or Authority",
    "state": "TX",
    "latitude": "34.55559098000049",
    "_id": 302,
    "type": "Critical Access"
  },
  {
    "phone_number": "(806) 998-4533",
    "longitude": "-101.77503893199969",
    "address": "2600 Lockwood St.",
    "emergency_services": "Yes",
    "city": "Tahoka",
    "name": "Lynn County Hospital District",
    "url": "lynn-county-hospital-district",
    "zipcode": "79373",
    "provider_number": "451351",
    "hospital ownership": "Government - Hospital District or Authority",
    "state": "TX",
    "latitude": "33.16631367800045",
    "_id": 303,
    "type": "Critical Access"
  },
  {
    "phone_number": "(940) 564-5521",
    "longitude": "-98.76381281899967",
    "address": "901 W. Hamilton",
    "emergency_services": "Yes",
    "city": "Olney",
    "name": "Hamilton Hospital",
    "url": "hamilton-hospital",
    "zipcode": "76374",
    "provider_number": "451354",
    "hospital ownership": "Government - Hospital District or Authority",
    "state": "TX",
    "latitude": "33.36961188500044",
    "_id": 304,
    "type": "Critical Access"
  },
  {
    "phone_number": "(806) 447-2521",
    "longitude": "-100.21241949299969",
    "address": "1013 15th St.",
    "emergency_services": "Yes",
    "city": "Wellington",
    "name": "Collingsworth General Hospital",
    "url": "collingsworth-general-hospital",
    "zipcode": "79095",
    "provider_number": "451355",
    "hospital ownership": "Proprietary",
    "state": "TX",
    "latitude": "34.84917949600049",
    "_id": 305,
    "type": "Critical Access"
  },
  {
    "phone_number": "(361) 552-6713",
    "longitude": "-96.63158226199965",
    "address": "815 N. Virginia St.",
    "emergency_services": "Yes",
    "city": "Port Lavaca",
    "name": "Memorial Medical Center",
    "url": "memorial-medical-center",
    "zipcode": "77979",
    "provider_number": "451356",
    "hospital ownership": "Government - Local",
    "state": "TX",
    "latitude": "28.620971134000456",
    "_id": 306,
    "type": "Critical Access"
  },
  {
    "phone_number": "(512) 446-4500",
    "longitude": "-97.02206497199967",
    "address": "1700 Brazos",
    "emergency_services": "Yes",
    "city": "Rockdale",
    "name": "Little River Healthcare",
    "url": "little-river-healthcare",
    "zipcode": "76567",
    "provider_number": "451357",
    "hospital ownership": "Proprietary",
    "state": "TX",
    "latitude": "30.650107321000462",
    "_id": 307,
    "type": "Critical Access"
  },
  {
    "phone_number": "(409) 787-3300",
    "longitude": "-93.77394901299965",
    "address": "2301 U.S. Highway 83 West/P.O. Box 750 ",
    "emergency_services": "Yes",
    "city": "Hemphill",
    "name": "Sabine County Hospital",
    "url": "sabine-county-hospital",
    "zipcode": "75948",
    "provider_number": "451361",
    "hospital ownership": "Government - Hospital District or Authority",
    "state": "TX",
    "latitude": "31.310200258000464",
    "_id": 308,
    "type": "Critical Access"
  },
  {
    "phone_number": "(361) 782-7800",
    "longitude": "-96.6373718379997",
    "address": "1013 S. Wells",
    "emergency_services": "Yes",
    "city": "Edna",
    "name": "Jackson Healthcare Center",
    "url": "jackson-healthcare-center",
    "zipcode": "77957",
    "provider_number": "451363",
    "hospital ownership": "Government - Hospital District or Authority",
    "state": "TX",
    "latitude": "28.970852005000438",
    "_id": 309,
    "type": "Critical Access"
  },
  {
    "phone_number": "(830) 583-3401",
    "longitude": "-97.87837105599965",
    "address": "3349 S. Highway 181",
    "emergency_services": "Yes",
    "city": "Kenedy",
    "name": "Otto Kaiser Memorial Hospital",
    "url": "otto-kaiser-memorial-hospital",
    "zipcode": "78119",
    "provider_number": "451364",
    "hospital ownership": "Government - Hospital District or Authority",
    "state": "TX",
    "latitude": "28.848629634000474",
    "_id": 310,
    "type": "Critical Access"
  },
  {
    "phone_number": "(512) 715-3000",
    "longitude": "-98.3842388379997",
    "address": "3201 S. Water St.",
    "emergency_services": "Yes",
    "city": "Burnet",
    "name": "Seton Highland Lakes",
    "url": "seton-highland-lakes",
    "zipcode": "78611",
    "provider_number": "451365",
    "hospital ownership": "Nonprofit - Church",
    "state": "TX",
    "latitude": "30.80165340500048",
    "_id": 311,
    "type": "Critical Access"
  },
  {
    "phone_number": "(806) 266-5565",
    "longitude": "-102.7579376489997",
    "address": "205 E. Grant St.",
    "emergency_services": "Yes",
    "city": "Morton",
    "name": "Cochran Memorial Hospital",
    "url": "cochran-memorial-hospital",
    "zipcode": "79346",
    "provider_number": "451366",
    "hospital ownership": "Government - Hospital District or Authority",
    "state": "TX",
    "latitude": "33.71932889000044",
    "_id": 312,
    "type": "Critical Access"
  },
  {
    "phone_number": "(903) 856-4520",
    "longitude": "-94.96206392999966",
    "address": "2701 U.S. Highway 271 North",
    "emergency_services": "Yes",
    "city": "Pittsburg",
    "name": "East Texas Medical Center Pittsburg",
    "url": "east-texas-medical-center-pittsburg",
    "zipcode": "75686",
    "provider_number": "451367",
    "hospital ownership": "Nonprofit - Church",
    "state": "TX",
    "latitude": "33.03100783800045",
    "_id": 313,
    "type": "Critical Access"
  },
  {
    "phone_number": "(806) 273-1100",
    "longitude": "-101.40796953899968",
    "address": "100 Medical Drive",
    "emergency_services": "Yes",
    "city": "Borger",
    "name": "Golden Plains Community Hospital",
    "url": "golden-plains-community-hospital",
    "zipcode": "79007",
    "provider_number": "451369",
    "hospital ownership": "Government - Federal",
    "state": "TX",
    "latitude": "35.65602056500046",
    "_id": 314,
    "type": "Critical Access"
  },
  {
    "phone_number": "(903) 640-7311",
    "longitude": "-96.16741807799968",
    "address": "504 Lipscomb St.",
    "emergency_services": "Yes",
    "city": "Bonham",
    "name": "Red River Regional Hospital",
    "url": "red-river-regional-hospital",
    "zipcode": "75418",
    "provider_number": "451370",
    "hospital ownership": "Proprietary",
    "state": "TX",
    "latitude": "33.578319716000465",
    "_id": 315,
    "type": "Critical Access"
  },
  {
    "phone_number": "(830) 875-7000",
    "longitude": "-97.65348253999969",
    "address": "130 Hays St.",
    "emergency_services": "Yes",
    "city": "Luling",
    "name": "Seton Edgar B Davis Hospital",
    "url": "seton-edgar-b-davis-hospital",
    "zipcode": "78648",
    "provider_number": "451371",
    "hospital ownership": "Nonprofit - Church",
    "state": "TX",
    "latitude": "29.672628517000476",
    "_id": 316,
    "type": "Critical Access"
  },
  {
    "phone_number": "(806) 272-4524",
    "longitude": "-102.72842759199966",
    "address": "708 S 1st St.",
    "emergency_services": "Yes",
    "city": "Muleshoe",
    "name": "Muleshoe Area Medical Center",
    "url": "muleshoe-area-medical-center",
    "zipcode": "79347",
    "provider_number": "451372",
    "hospital ownership": "Government - Hospital District or Authority",
    "state": "TX",
    "latitude": "34.22110625100049",
    "_id": 317,
    "type": "Critical Access"
  },
  {
    "phone_number": "(432) 943-2511",
    "longitude": "-102.88455632999967",
    "address": "406 S. Gary St.",
    "emergency_services": "No",
    "city": "Monahans",
    "name": "Ward Memorial Hospital",
    "url": "ward-memorial-hospital",
    "zipcode": "79756",
    "provider_number": "451373",
    "hospital ownership": "Government - Local",
    "state": "TX",
    "latitude": "31.593884051000487",
    "_id": 318,
    "type": "Critical Access"
  },
  {
    "phone_number": "(512) 352-7611",
    "longitude": "-97.41530133899965",
    "address": "305 Mallard",
    "emergency_services": "Yes",
    "city": "Taylor",
    "name": "Scott & White Hospital-Taylor",
    "url": "scott-white-hospital-taylor",
    "zipcode": "76574",
    "provider_number": "451374",
    "hospital ownership": "Nonprofit - Church",
    "state": "TX",
    "latitude": "30.591904772000476",
    "_id": 319,
    "type": "Critical Access"
  },
  {
    "phone_number": "(361) 798-3671",
    "longitude": "-96.93980945299967",
    "address": "1400 N. Texana St.",
    "emergency_services": "Yes",
    "city": "Hallettsville",
    "name": "Lavaca Medical Center",
    "url": "lavaca-medical-center",
    "zipcode": "77964",
    "provider_number": "451376",
    "hospital ownership": "Government - Hospital District or Authority",
    "state": "TX",
    "latitude": "29.457930596000438",
    "_id": 320,
    "type": "Critical Access"
  },
  {
    "phone_number": "(432) 447-3551",
    "longitude": "-103.51282219499967",
    "address": "2323 Texas St.",
    "emergency_services": "Yes",
    "city": "Pecos",
    "name": "Reeves County Hospital District",
    "url": "reeves-county-hospital-district",
    "zipcode": "79772",
    "provider_number": "451377",
    "hospital ownership": "Government - Hospital District or Authority",
    "state": "TX",
    "latitude": "31.401773196000477",
    "_id": 321,
    "type": "Critical Access"
  },
  {
    "phone_number": "(432) 837-3447",
    "longitude": "-103.6599662269997",
    "address": "2600 Highway 118 North",
    "emergency_services": "Yes",
    "city": "Alpine",
    "name": "Big Bend Regional Medical Center",
    "url": "big-bend-regional-medical-center",
    "zipcode": "79830",
    "provider_number": "451378",
    "hospital ownership": "Proprietary",
    "state": "TX",
    "latitude": "30.35429035800047",
    "_id": 322,
    "type": "Critical Access"
  },
  {
    "phone_number": "(254) 865-8251",
    "longitude": "-97.7761219199997",
    "address": "1507 W. Main St.",
    "emergency_services": "Yes",
    "city": "Gatesville",
    "name": "Coryell Memorial Healthcare System",
    "url": "coryell-memorial-healthcare-system",
    "zipcode": "76528",
    "provider_number": "451379",
    "hospital ownership": "Government - Hospital District or Authority",
    "state": "TX",
    "latitude": "31.433610711000483",
    "_id": 323,
    "type": "Critical Access"
  },
  {
    "phone_number": "(903) 763-4500",
    "longitude": "-95.44505377599967",
    "address": "117 Winnsboro St.",
    "emergency_services": "Yes",
    "city": "Quitman",
    "name": "East Texas Medical Center Quitman",
    "url": "east-texas-medical-center-quitman",
    "zipcode": "75783",
    "provider_number": "451380",
    "hospital ownership": "Nonprofit - Church",
    "state": "TX",
    "latitude": "32.796375054000464",
    "_id": 324,
    "type": "Critical Access"
  },
  {
    "phone_number": "(682) 885-4000",
    "longitude": "-97.34195795299968",
    "address": "801 Seventh Ave.",
    "emergency_services": "Yes",
    "city": "Fort Worth",
    "name": "Cook Childrens Medical Center",
    "url": "cook-childrens-medical-center",
    "zipcode": "76104",
    "provider_number": "453300",
    "hospital ownership": "Nonprofit - Church",
    "state": "TX",
    "latitude": "32.73648996200046",
    "_id": 325,
    "type": "Childrens"
  },
  {
    "phone_number": "(512) 850-5000",
    "longitude": "-97.38499668099968",
    "address": "3533 S. Alameda/P.O. Box 6530",
    "emergency_services": "Yes",
    "city": "Corpus Christi",
    "name": "Driscoll Childrens Hospital",
    "url": "driscoll-childrens-hospital",
    "zipcode": "78411",
    "provider_number": "453301",
    "hospital ownership": "Nonprofit - Other",
    "state": "TX",
    "latitude": "27.74926046200045",
    "_id": 326,
    "type": "Childrens"
  },
  {
    "phone_number": "(512) 324-0000",
    "longitude": "-97.70494631999969",
    "address": "4900 Mueller Blvd.",
    "emergency_services": "Yes",
    "city": "Austin",
    "name": "Dell Children's Medical Center Of Central Texas",
    "url": "dell-children-s-medical-center-of-central-texas",
    "zipcode": "78723",
    "provider_number": "453310",
    "hospital ownership": "Nonprofit - Church",
    "state": "TX",
    "latitude": "30.302557926000475",
    "_id": 327,
    "type": "Childrens"
  },
  {
    "phone_number": "(214) 623-4400",
    "longitude": "-96.85716182699969",
    "address": "2929  S. Hampton Road",
    "emergency_services": "Yes",
    "city": "Dallas",
    "name": "South Hampton Community Hospital",
    "url": "south-hampton-community-hospital",
    "zipcode": "75224",
    "provider_number": "670002",
    "hospital ownership": "Proprietary",
    "state": "TX",
    "latitude": "32.71524077400045",
    "_id": 328,
    "type": "Acute Care"
  },
  {
    "phone_number": "(979) 242-2200",
    "longitude": "-96.87637852999967",
    "address": "1 St. Mark's Place",
    "emergency_services": "Yes",
    "city": "La Grange",
    "name": "St Marks Medical Center",
    "url": "st-marks-medical-center",
    "zipcode": "78945",
    "provider_number": "670004",
    "hospital ownership": "Nonprofit - Church",
    "state": "TX",
    "latitude": "29.91365031400045",
    "_id": 329,
    "type": "Acute Care"
  },
  {
    "phone_number": "(281) 312-4000",
    "longitude": "-95.25805092199965",
    "address": "300 Kingwood Medical Drive",
    "emergency_services": "No",
    "city": "Kingwood",
    "name": "Memorial Hermann Surgical Hospital Kingwood",
    "url": "memorial-hermann-surgical-hospital-kingwood",
    "zipcode": "77339",
    "provider_number": "670005",
    "hospital ownership": "Proprietary",
    "state": "TX",
    "latitude": "30.047258445000466",
    "_id": 330,
    "type": "Acute Care"
  },
  {
    "phone_number": "(512) 327-0000",
    "longitude": "-97.82458826699968",
    "address": "5656 Bee Caves Road, Suite M 302",
    "emergency_services": "Yes",
    "city": "Austin",
    "name": "The Hospital At Westlake Medical Center",
    "url": "the-hospital-at-westlake-medical-center",
    "zipcode": "78746",
    "provider_number": "670006",
    "hospital ownership": "Proprietary",
    "state": "TX",
    "latitude": "30.294565531000444",
    "_id": 331,
    "type": "Acute Care"
  },
  {
    "phone_number": "(281) 335-1700",
    "longitude": "-95.12562208799966",
    "address": "333 N. Texas Ave.",
    "emergency_services": "Yes",
    "city": "Webster",
    "name": "Houston Physicians' Hospital",
    "url": "houston-physicians-hospital",
    "zipcode": "77598",
    "provider_number": "670008",
    "hospital ownership": "Physician",
    "state": "TX",
    "latitude": "29.534700470000473",
    "_id": 332,
    "type": "Acute Care"
  },
  {
    "phone_number": "(940) 239-3000",
    "longitude": "-97.08822676499966",
    "address": "2809 S. Mayhill Road",
    "emergency_services": "No",
    "city": "Denton",
    "name": "Mayhill Hospital",
    "url": "mayhill-hospital",
    "zipcode": "76208",
    "provider_number": "670010",
    "hospital ownership": "Proprietary",
    "state": "TX",
    "latitude": "33.176011109000456",
    "_id": 333,
    "type": "Acute Care"
  },
  {
    "phone_number": "(713) 622-2262",
    "longitude": "-95.46077209299966",
    "address": "5410 West Loop South",
    "emergency_services": "Yes",
    "city": "Bellaire",
    "name": "Houston Orthopedic And Spine Hospital",
    "url": "houston-orthopedic-and-spine-hospital",
    "zipcode": "77401",
    "provider_number": "670012",
    "hospital ownership": "Proprietary",
    "state": "TX",
    "latitude": "29.72394069200044",
    "_id": 334,
    "type": "Acute Care"
  },
  {
    "phone_number": "(281) 622-2900",
    "longitude": "-95.1861192509997",
    "address": "1017 S. Travis",
    "emergency_services": "Yes",
    "city": "Cleveland",
    "name": "Doctors Diagnostic Hospital",
    "url": "doctors-diagnostic-hospital",
    "zipcode": "77328",
    "provider_number": "670018",
    "hospital ownership": "Physician",
    "state": "TX",
    "latitude": "30.36388412900044",
    "_id": 335,
    "type": "Acute Care"
  },
  {
    "phone_number": "(713) 652-3800",
    "longitude": "-95.40077819599969",
    "address": "7501 Fannin",
    "emergency_services": "Yes",
    "city": "Houston",
    "name": "University General Hospital",
    "url": "university-general-hospital",
    "zipcode": "77054",
    "provider_number": "670019",
    "hospital ownership": "Proprietary",
    "state": "TX",
    "latitude": "29.693011021000473",
    "_id": 336,
    "type": "Acute Care"
  },
  {
    "phone_number": "(210) 368-7487",
    "longitude": "-98.4117344339997",
    "address": "4243 Southcross Blvd.",
    "emergency_services": "Yes",
    "city": "San Antonio",
    "name": "Innova Hospital San Antonio",
    "url": "innova-hospital-san-antonio",
    "zipcode": "78222",
    "provider_number": "670021",
    "hospital ownership": "Proprietary",
    "state": "TX",
    "latitude": "29.37492835800049",
    "_id": 337,
    "type": "Acute Care"
  },
  {
    "phone_number": "(682) 622-2059",
    "longitude": "-97.09708970799966",
    "address": "2700 E. Broad St.",
    "emergency_services": "Yes",
    "city": "Mansfield",
    "name": "Methodist Mansfield Medical Center",
    "url": "methodist-mansfield-medical-center",
    "zipcode": "76063",
    "provider_number": "670023",
    "hospital ownership": "Nonprofit - Church",
    "state": "TX",
    "latitude": "32.568492035000475",
    "_id": 338,
    "type": "Acute Care"
  },
  {
    "phone_number": "(281) 890-0203",
    "longitude": "-95.63252806199966",
    "address": "21214 Northwest Freeway",
    "emergency_services": "Yes",
    "city": "Cypress",
    "name": "North Cypress Medical Center",
    "url": "north-cypress-medical-center",
    "zipcode": "77429",
    "provider_number": "670024",
    "hospital ownership": "Physician",
    "state": "TX",
    "latitude": "29.924885250000443",
    "_id": 339,
    "type": "Acute Care"
  },
  {
    "phone_number": "(469) 814-3278",
    "longitude": "-96.79073860899967",
    "address": "1100 Allied Drive",
    "emergency_services": "Yes",
    "city": "Plano",
    "name": "The Heart Hospital Baylor Plano",
    "url": "the-heart-hospital-baylor-plano",
    "zipcode": "75093",
    "provider_number": "670025",
    "hospital ownership": "Proprietary",
    "state": "TX",
    "latitude": "33.014446835000456",
    "_id": 340,
    "type": "Acute Care"
  },
  {
    "phone_number": "(713) 713-7133",
    "longitude": "-95.46249777799966",
    "address": "4801 Bissonet Blvd.",
    "emergency_services": "Yes",
    "city": "Bellaire",
    "name": "First Surgical Hospital",
    "url": "first-surgical-hospital",
    "zipcode": "77401",
    "provider_number": "670029",
    "hospital ownership": "Proprietary",
    "state": "TX",
    "latitude": "29.71037564900047",
    "_id": 341,
    "type": "Acute Care"
  },
  {
    "phone_number": "(281) 487-0700",
    "longitude": "-95.16000312999967",
    "address": "4600 E. Sam Houston Parkway South",
    "emergency_services": "Yes",
    "city": "Pasadena",
    "name": "St Luke's Patients Medical Center",
    "url": "st-luke-s-patients-medical-center",
    "zipcode": "77505",
    "provider_number": "670031",
    "hospital ownership": "Physician",
    "state": "TX",
    "latitude": "29.641109010000434",
    "_id": 342,
    "type": "Acute Care"
  },
  {
    "phone_number": "(512) 509-0100",
    "longitude": "-97.6849191389997",
    "address": "300 University Blvd.",
    "emergency_services": "Yes",
    "city": "Round Rock",
    "name": "Scott & White Hospital-Round Rock",
    "url": "scott-white-hospital-round-rock",
    "zipcode": "78664",
    "provider_number": "670034",
    "hospital ownership": "Nonprofit - Church",
    "state": "TX",
    "latitude": "30.560317426000438",
    "_id": 343,
    "type": "Acute Care"
  },
  {
    "phone_number": "(512) 324-0000",
    "longitude": "-97.65298034999967",
    "address": "201 Seton Parkway",
    "emergency_services": "Yes",
    "city": "Round Rock",
    "name": "Seton Medical Center Williamson",
    "url": "seton-medical-center-williamson",
    "zipcode": "78664",
    "provider_number": "670041",
    "hospital ownership": "Nonprofit - Church",
    "state": "TX",
    "latitude": "30.571051729000487",
    "_id": 344,
    "type": "Acute Care"
  },
  {
    "phone_number": "(512) 528-7000",
    "longitude": "-97.81187836799967",
    "address": "1401 Medical Parkway",
    "emergency_services": "Yes",
    "city": "Cedar Park",
    "name": "Cedar Park Regional Medical Center",
    "url": "cedar-park-regional-medical-center",
    "zipcode": "78613",
    "provider_number": "670043",
    "hospital ownership": "Proprietary",
    "state": "TX",
    "latitude": "30.530595852000488",
    "_id": 345,
    "type": "Acute Care"
  },
  {
    "phone_number": "(469) 698-1000",
    "longitude": "-96.46477002099965",
    "address": "3150 Horizon Road",
    "emergency_services": "Yes",
    "city": "Rockwall",
    "name": "Texas Health Presbyterian Hospital Rockwall",
    "url": "texas-health-presbyterian-hospital-rockwall",
    "zipcode": "75032",
    "provider_number": "670044",
    "hospital ownership": "Physician",
    "state": "TX",
    "latitude": "32.886069045000454",
    "_id": 346,
    "type": "Acute Care"
  },
  {
    "phone_number": "(817) 605-2500",
    "longitude": "-97.18608847099966",
    "address": "6316 Precinct Line Road",
    "emergency_services": "Yes",
    "city": "Hurst",
    "name": "Cook Childrens Northeast Hospital, Llc",
    "url": "cook-childrens-northeast-hospital-llc",
    "zipcode": "76054",
    "provider_number": "670045",
    "hospital ownership": "Nonprofit - Church",
    "state": "TX",
    "latitude": "32.86322060000049",
    "_id": 347,
    "type": "Acute Care"
  },
  {
    "phone_number": "(817) 433-9100",
    "longitude": "-97.41748793299968",
    "address": "5900 Dirks Road",
    "emergency_services": "Yes",
    "city": "Fort Worth",
    "name": "Usmd Hospital  At Fort Worth Lp",
    "url": "usmd-hospital-at-fort-worth-lp",
    "zipcode": "76132",
    "provider_number": "670046",
    "hospital ownership": "Proprietary",
    "state": "TX",
    "latitude": "32.64560779900046",
    "_id": 348,
    "type": "Acute Care"
  },
  {
    "phone_number": "(915) 856-7349",
    "longitude": "-106.26762812799967",
    "address": "3280 Joe Battle Blvd.",
    "emergency_services": "Yes",
    "city": "El Paso",
    "name": "Sierra Providence East Medical Center",
    "url": "sierra-providence-east-medical-center",
    "zipcode": "79938",
    "provider_number": "670047",
    "hospital ownership": "Proprietary",
    "state": "TX",
    "latitude": "31.790220156000487",
    "_id": 349,
    "type": "Acute Care"
  },
  {
    "phone_number": "(214) 265-2810",
    "longitude": "-96.77064378899968",
    "address": "9301 N. Central Expressway, Suite 100",
    "emergency_services": "Yes",
    "city": "Dallas",
    "name": "North Central Surgical Center Llp",
    "url": "north-central-surgical-center-llp",
    "zipcode": "75231",
    "provider_number": "670049",
    "hospital ownership": "Nonprofit - Other",
    "state": "TX",
    "latitude": "32.87500902800048",
    "_id": 350,
    "type": "Acute Care"
  },
  {
    "phone_number": "(806) 749-2222",
    "longitude": "-101.86834885199966",
    "address": "4302 Princeton",
    "emergency_services": "Yes",
    "city": "Lubbock",
    "name": "Trustpoint Hospital",
    "url": "trustpoint-hospital",
    "zipcode": "79415",
    "provider_number": "670050",
    "hospital ownership": "Physician",
    "state": "TX",
    "latitude": "33.616860450000445",
    "_id": 351,
    "type": "Acute Care"
  },
  {
    "phone_number": "(281) 637-7000",
    "longitude": "-95.62127853899966",
    "address": "1317 Lake Pointe Parkway",
    "emergency_services": "Yes",
    "city": "Sugar Land",
    "name": "St Luke'S Sugar Land Hospital",
    "url": "st-luke-s-sugar-land-hospital",
    "zipcode": "77478",
    "provider_number": "670053",
    "hospital ownership": "Nonprofit - Other",
    "state": "TX",
    "latitude": "29.604892134000465",
    "_id": 352,
    "type": "Acute Care"
  },
  {
    "phone_number": "(210) 478-5400",
    "longitude": "-98.59216975599969",
    "address": "9522 Huebner Road",
    "emergency_services": "Yes",
    "city": "San Antonio",
    "name": "Foundation Surgical Hospital Of San Antonio",
    "url": "foundation-surgical-hospital-of-san-antonio",
    "zipcode": "78240",
    "provider_number": "670054",
    "hospital ownership": "Proprietary",
    "state": "TX",
    "latitude": "29.531390046000467",
    "_id": 353,
    "type": "Acute Care"
  },
  {
    "phone_number": "(210) 638-2100",
    "longitude": "-98.47655835299969",
    "address": "1139 E. Sonterra Blvd.",
    "emergency_services": "Yes",
    "city": "San Antonio",
    "name": "Methodist Stone Oak Hospital",
    "url": "methodist-stone-oak-hospital",
    "zipcode": "78258",
    "provider_number": "670055",
    "hospital ownership": "Proprietary",
    "state": "TX",
    "latitude": "29.614517831000455",
    "_id": 354,
    "type": "Acute Care"
  },
  {
    "phone_number": "(512) 324-5000",
    "longitude": "-97.85517981299967",
    "address": "6001 Kyle Parkway",
    "emergency_services": "Yes",
    "city": "Kyle",
    "name": "Seton Medical Center Hays",
    "url": "seton-medical-center-hays",
    "zipcode": "78640",
    "provider_number": "670056",
    "hospital ownership": "Nonprofit - Church",
    "state": "TX",
    "latitude": "30.007586133000473",
    "_id": 355,
    "type": "Acute Care"
  },
  {
    "phone_number": "(281) 516-0911",
    "longitude": "-95.62367104599969",
    "address": "16000 Southwest Freeway",
    "emergency_services": "Yes",
    "city": "Sugar Land",
    "name": "Emerus Hospital",
    "url": "emerus-hospital",
    "zipcode": "77479",
    "provider_number": "670058",
    "hospital ownership": "Physician",
    "state": "TX",
    "latitude": "29.597971629000483",
    "_id": 356,
    "type": "Acute Care"
  },
  {
    "phone_number": "(936) 266-4055",
    "longitude": "-95.45938184199969",
    "address": "17400 St. Luke's Way",
    "emergency_services": "Yes",
    "city": "The Woodlands",
    "name": "St Lukes Lakeside Hospital",
    "url": "st-lukes-lakeside-hospital",
    "zipcode": "77384",
    "provider_number": "670059",
    "hospital ownership": "Nonprofit - Other",
    "state": "TX",
    "latitude": "30.20184948600047",
    "_id": 357,
    "type": "Acute Care"
  },
  {
    "phone_number": "(972) 892-3000",
    "longitude": "-96.56715393599967",
    "address": "231 S. Collins Road",
    "emergency_services": "Yes",
    "city": "Sunnyvale",
    "name": "Texas Regional Medical Center At Sunnyvale",
    "url": "texas-regional-medical-center-at-sunnyvale",
    "zipcode": "75182",
    "provider_number": "670060",
    "hospital ownership": "Proprietary",
    "state": "TX",
    "latitude": "32.778419244000474",
    "_id": 358,
    "type": "Acute Care"
  },
  {
    "phone_number": "(361) 993-2000",
    "longitude": "-97.3756034759997",
    "address": "6130 Parkway Drive",
    "emergency_services": "Yes",
    "city": "Corpus Christi",
    "name": "South Texas Surgical Hospital",
    "url": "south-texas-surgical-hospital",
    "zipcode": "78414",
    "provider_number": "670061",
    "hospital ownership": "Proprietary",
    "state": "TX",
    "latitude": "27.686783491000483",
    "_id": 359,
    "type": "Acute Care"
  },
  {
    "phone_number": "(972) 347-2525",
    "longitude": "-96.91343975899969",
    "address": "26791 U.S. Highway 380",
    "emergency_services": "Yes",
    "city": "Aubrey",
    "name": "Baylor Emergency Medical Center",
    "url": "baylor-emergency-medical-center",
    "zipcode": "76227",
    "provider_number": "670062",
    "hospital ownership": "Proprietary",
    "state": "TX",
    "latitude": "33.22007846300045",
    "_id": 360,
    "type": "Acute Care"
  },
  {
    "phone_number": "(432) 425-9510",
    "longitude": "-102.36036024399971",
    "address": "900 E. 4th St.",
    "emergency_services": "Yes",
    "city": "Odessa",
    "name": "Basin Healthcare Center, Llc",
    "url": "basin-healthcare-center-llc",
    "zipcode": "79761",
    "provider_number": "670066",
    "hospital ownership": "Proprietary",
    "state": "TX",
    "latitude": "31.85188607800046",
    "_id": 361,
    "type": "Acute Care"
  },
  {
    "phone_number": "(817) 549-2364",
    "longitude": "-97.11529834199968",
    "address": "707 Highlander Blvd.",
    "emergency_services": "Yes",
    "city": "Arlington",
    "name": "Baylor Orthopedic And Spine Hospital At Arlington",
    "url": "baylor-orthopedic-and-spine-hospital-at-arlington",
    "zipcode": "76015",
    "provider_number": "670067",
    "hospital ownership": "Proprietary",
    "state": "TX",
    "latitude": "32.682620090000455",
    "_id": 362,
    "type": "Acute Care"
  },
  {
    "phone_number": "(972) 419-1530",
    "longitude": "-97.06928792199966",
    "address": "4400 Long Prairie Road",
    "emergency_services": "Yes",
    "city": "Flower Mound",
    "name": "Texas Health Presbyterian Hospital Flower Mound",
    "url": "texas-health-presbyterian-hospital-flower-mound",
    "zipcode": "75028",
    "provider_number": "670068",
    "hospital ownership": "Proprietary",
    "state": "TX",
    "latitude": "33.04542069100046",
    "_id": 363,
    "type": "Acute Care"
  },
  {
    "phone_number": "(469) 424-6400",
    "longitude": "-96.72303052499967",
    "address": "8000 W. Eldorado Parkway",
    "emergency_services": "Yes",
    "city": "Mc Kinney",
    "name": "Methodist Mckinney Hospital",
    "url": "methodist-mckinney-hospital",
    "zipcode": "75070",
    "provider_number": "670069",
    "hospital ownership": "Proprietary",
    "state": "TX",
    "latitude": "33.17556716800044",
    "_id": 364,
    "type": "Acute Care"
  },
  {
    "phone_number": "(817) 960-3500",
    "longitude": "-97.11580995499969",
    "address": "811 Wright St.",
    "emergency_services": "No",
    "city": "Arlington",
    "name": "Texas Health Heart & Vascular Hospital Arlington",
    "url": "texas-health-heart-vascular-hospital-arlington",
    "zipcode": "76012",
    "provider_number": "670071",
    "hospital ownership": "Proprietary",
    "state": "TX",
    "latitude": "32.748228827000446",
    "_id": 365,
    "type": "Acute Care"
  },
  {
    "phone_number": "(713) 422-2650",
    "longitude": "-95.47803249399965",
    "address": "5556 Gasmer",
    "emergency_services": "No",
    "city": "Houston",
    "name": "Westbury Community Hospital, Llc",
    "url": "westbury-community-hospital-llc",
    "zipcode": "77035",
    "provider_number": "670072",
    "hospital ownership": "Proprietary",
    "state": "TX",
    "latitude": "29.651058050000472",
    "_id": 366,
    "type": "Acute Care"
  },
  {
    "phone_number": "(469) 248-3900",
    "longitude": "-96.82890313099966",
    "address": "17101 Dallas Parkway",
    "emergency_services": "Yes",
    "city": "Addison",
    "name": "Methodist Hospital For Surgery",
    "url": "methodist-hospital-for-surgery",
    "zipcode": "75001",
    "provider_number": "670073",
    "hospital ownership": "Proprietary",
    "state": "TX",
    "latitude": "32.98389642400048",
    "_id": 367,
    "type": "Acute Care"
  },
  {
    "phone_number": "(832) 534-5000",
    "longitude": "-95.5701722989997",
    "address": "20171 Chasewood Park Drive",
    "emergency_services": "Yes",
    "city": "Houston",
    "name": "St Luke's Hospital At The Vintage, Llc",
    "url": "st-luke-s-hospital-at-the-vintage-llc",
    "zipcode": "77070",
    "provider_number": "670075",
    "hospital ownership": "Proprietary",
    "state": "TX",
    "latitude": "29.989951515000485",
    "_id": 368,
    "type": "Acute Care"
  },
  {
    "phone_number": "(903) 813-3728",
    "longitude": "-96.5833079089997",
    "address": "3601 Calais Drive",
    "emergency_services": "Yes",
    "city": "Sherman",
    "name": "Heritage Park Surgical Hospital",
    "url": "heritage-park-surgical-hospital",
    "zipcode": "75090",
    "provider_number": "670076",
    "hospital ownership": "Proprietary",
    "state": "TX",
    "latitude": "33.63243189700046",
    "_id": 369,
    "type": "Acute Care"
  },
  {
    "phone_number": "(832) 522-1000",
    "longitude": "-95.69489077799966",
    "address": "18500 Katy Freeway",
    "emergency_services": "Yes",
    "city": "Houston",
    "name": "Methodist West Houston Hospital",
    "url": "methodist-west-houston-hospital",
    "zipcode": "77094",
    "provider_number": "670077",
    "hospital ownership": "Nonprofit - Church",
    "state": "TX",
    "latitude": "29.78553828000048",
    "_id": 370,
    "type": "Acute Care"
  },
  {
    "phone_number": "(210) 402-4092",
    "longitude": "-98.47422032899965",
    "address": "16088 San Pedro",
    "emergency_services": "No",
    "city": "San Antonio",
    "name": "Baptist Emergency Hospital",
    "url": "baptist-emergency-hospital",
    "zipcode": "78232",
    "provider_number": "670078",
    "hospital ownership": "Proprietary",
    "state": "TX",
    "latitude": "29.587791629000435",
    "_id": 371,
    "type": "Acute Care"
  },
  {
    "phone_number": "(512) 205-8102",
    "longitude": "-97.95245824799969",
    "address": "100 Medical Parkway",
    "emergency_services": "Yes",
    "city": "Lakeway",
    "name": "Lakeway Regional Medical Center, Llc",
    "url": "lakeway-regional-medical-center-llc",
    "zipcode": "78734",
    "provider_number": "670079",
    "hospital ownership": "Proprietary",
    "state": "TX",
    "latitude": "30.377384062000488",
    "_id": 372,
    "type": "Acute Care"
  },
  {
    "phone_number": "(254) 953-8342",
    "longitude": "-97.6419398219997",
    "address": "850 W. Central Texas Expressway",
    "emergency_services": "Yes",
    "city": "Harker Heights",
    "name": "Seton Medical Center Harker Heights",
    "url": "seton-medical-center-harker-heights",
    "zipcode": "76548",
    "provider_number": "670080",
    "hospital ownership": "Proprietary",
    "state": "TX",
    "latitude": "31.08180194300047",
    "_id": 373,
    "type": "Acute Care"
  },
  {
    "phone_number": "(469) 742-2200",
    "longitude": "-96.67983036999965",
    "address": "5252 W. University Drive",
    "emergency_services": "Yes",
    "city": "Mc Kinney",
    "name": "Baylor Medical Center At Mckinney",
    "url": "baylor-medical-center-at-mckinney",
    "zipcode": "75071",
    "provider_number": "670082",
    "hospital ownership": "Nonprofit - Church",
    "state": "TX",
    "latitude": "33.21840844500048",
    "_id": 374,
    "type": "Acute Care"
  },
  {
    "phone_number": "(469) 635-2073",
    "longitude": "-97.0479602589997",
    "address": "2709 Hospital Blvd.",
    "emergency_services": "Yes",
    "city": "Grand Prairie",
    "name": "Texas General Hospital",
    "url": "texas-general-hospital",
    "zipcode": "75051",
    "provider_number": "670083",
    "hospital ownership": "Proprietary",
    "state": "TX",
    "latitude": "32.73362369000046",
    "_id": 375,
    "type": "Acute Care"
  },
  {
    "phone_number": "(281) 634-7800",
    "longitude": "-95.20046019099965",
    "address": "1004 Seymour St.",
    "emergency_services": "Yes",
    "city": "Pasadena",
    "name": "Pristine Hospital Of Pasadena",
    "url": "pristine-hospital-of-pasadena",
    "zipcode": "77506",
    "provider_number": "670084",
    "hospital ownership": "Physician",
    "state": "TX",
    "latitude": "29.702943479000453",
    "_id": 376,
    "type": "Acute Care"
  },
  {
    "phone_number": "(682) 212-2004",
    "longitude": "-97.30977613699969",
    "address": "10864 Texas Health Trail",
    "emergency_services": "Yes",
    "city": "Fort Worth",
    "name": "Texas Health Harris Methodist Hospital Alliance",
    "url": "texas-health-harris-methodist-hospital-alliance",
    "zipcode": "76244",
    "provider_number": "670085",
    "hospital ownership": "Nonprofit - Church",
    "state": "TX",
    "latitude": "32.93238478900048",
    "_id": 377,
    "type": "Acute Care"
  }
]
